~VERSION INFORMATION
 VERS.                 2.0:   CWLS LOG ASCII STANDARD - VERSION 2.0
 WRAP.                  NO:   SINGLE LINE PER DEPTH STEP
 CREA.                 21/06/2013 8:55:46 AM
#CREATED USING IP VERSION 4.1.2012.198 BY NEIL WATSON ON 21/06/2013 8:55:46 AM
~WELL INFORMATION
#MNEM.UNIT       DATA                          DESCRIPTION MNEMONIC
#---------      ---------------------------   --------------------------
 STRT    .M         900.0000                  : START DEPTH
 STOP    .M         3455.0000                 : STOP DEPTH
 STEP    .M         0.1000                    : STEP VALUE
 NULL    .      -999.0000                     : NULL VALUE
 SRVC    .      SCH                           : Service Company/Logging company
 DATE    .      21/06/2013                    : LAS file Creation Date
 WELL    .      SHELL PCI ET AL PANUKE B-90   : Well Name
 COMP    .      SHELL CANADA LIMITED          : Company
 FLD     .      SCOTIAN SHELF                 : Field
 STATE   .      ONTARIO                       : State
 COUNT   .      CANADA                        : Country
 LOC     .      43� 49' 11 _ 9" N|60� 42' 34 _: Location
 LATI    .      0                             : Latitude/Northing
 LONG    .      0                             : Longitude/Easting
 PDAT    .      RT                            : Permanent Datum
 EPDAT   .      0.0000                        : Elevation of Permanent Datum
 KB      .      23.3000                       : KB Elevation
 DF      .      22.7000                       : DF Elevation
 GL      .      47.0000                       : GL Elevation
 RWS     .      -999                          : Def_Rw
 WST     .      -999                          : Def_Rwt
 ERT     .      0.0000                        : RT Elevation
 CNTY    .      NOVA SCOTIA                   : County
 SRVC    .      SCH                           : Contractor
~CURVE INFORMATION
#MNEM                  UNIT       API CODE   Curve Type        Comments
#----------      --------------- ----------  --------------- -----------
 DEPTH          .M                         : Depth           
 BS             .mm                        :                 
 CALI           .MM                        : Caliper         Caliper
 CALS           .MM                        : Caliper         Caliper
 DepOffCPORtoRH .M                         : Depth           
 DRHO           .KG/M3                     : Drho            Delta Rho
 DT             .US/M                      : Sonic           Delta-T
 GR             .GAPI                      : GammaRay        Gamma Ray
 ILD            .OHMM                      : DeepRes         Deep Induction Standard Processed Resistivity
 ILM            .OHMM                      : MedRes          Medium Induction Standard Processed Resistivity
 NPHISS         .V/V                       : Neutron         NPHISS
 PE             .B/E                       : PEF             
 RHOB           .KG/M3                     : Density         Bulk Density
~A  DEPTH     BS       CALI      CALS   DepOffCP~    DRHO       DT        GR       ILD       ILM      NPHISS      PE       RHOB   
# ...
2084.2000  311.0000  314.6150  315.5330 2084.2000   11.6060  308.7420   89.6410    1.9720    2.0690    0.3750    3.5720 2440.2610 
2084.3000  311.0000  314.7660  315.5030 2084.3000   13.4060  309.2040   89.0630    1.9820    2.0680    0.3800    3.6090 2443.4751 
2084.4000  311.0000  314.9180  315.4710 2084.3999   14.6080  309.1300   89.1150    1.9920    2.0790    0.3720    3.6400 2445.9951 
2084.5000  311.0000  314.9600  315.4390 2084.5000   13.6530  308.7120   90.8210    2.0020    2.1030    0.3600    3.6700 2442.7251 
2084.6000  311.0000  314.8110  315.4080 2084.6001   10.1230  308.2940   92.5180    2.0120    2.1270    0.3470    3.6570 2438.8511 
2084.7000  311.0000  314.6610  315.3760 2084.7000    6.5600  308.6810   94.2130    2.0220    2.1510    0.3410    3.6430 2434.9819 
2084.8000  311.0000  314.5110  315.3440 2084.8000    3.0010  311.2740   95.9070    2.0360    2.1630    0.3530    3.6340 2431.1130 
2084.9000  311.0000  314.3610  315.3120 2084.8999   -0.5550  313.8670   97.6130    2.0600    2.1730    0.3750    3.6560 2427.2520 
2085.0000  311.0000  314.2110  315.2800 2085.0000   -4.1390  316.4600   98.9090    2.0840    2.1830    0.3990    3.6780 2423.3169 
2085.1000  311.0000  314.0610  315.2480 2085.1001   -4.9910  319.0530  100.2000    2.1090    2.2150    0.4170    3.7270 2424.1641 
2085.2000  311.0000  313.9120  315.2160 2085.2000   -5.4140  321.6370  100.6600    2.1340    2.2540    0.4260    3.8160 2430.4819 
2085.3000  311.0000  313.7700  315.1840 2085.3000   -4.4030  321.0420  100.5310    2.1600    2.2930    0.4150    3.9030 2441.4900 
2085.4000  311.0000  313.7360  315.1520 2085.3999   -2.4060  318.2950   98.6930    2.1860    2.3330    0.4010    3.9320 2452.5801 
2085.5000  311.0000  313.7030  315.1200 2085.5000   -0.4090  312.8680   96.7080    2.2120    2.3650    0.3890    3.9570 2462.8359 
2085.6000  311.0000  313.6700  315.0880 2085.6001    1.5920  307.4400   94.7290    2.2390    2.3900    0.3820    3.8660 2469.0410 
2085.7000  311.0000  313.6380  315.0560 2085.7000    2.6590  302.0130   92.7510    2.2660    2.4150    0.3750    3.7670 2471.3960 
2085.8000  311.0000  313.6050  315.0490 2085.8000    2.1140  298.9480   91.6230    2.2940    2.4410    0.3620    3.6730 2471.7700 
2085.9000  311.0000  313.5720  315.0920 2085.8999    1.5660  297.2040   90.9450    2.3220    2.4560    0.3480    3.6360 2472.4431 
2086.0000  311.0000  313.5400  315.1350 2086.0000    2.1700  299.1400   91.6020    2.3520    2.4640    0.3340    3.6720 2475.5779 
2086.1000  311.0000  313.5070  315.1780 2086.1001    3.4190  301.1980   92.2800    2.3370    2.4720    0.3200    3.7420 2478.7129 
2086.2000  311.0000  313.4740  315.2200 2086.2000    4.6630  304.4400   93.6230    2.3270    2.4850    0.3220    3.8540 2481.9729 
2086.3000  311.0000  313.4420  315.2630 2086.3000    5.9090  307.7420   95.4060    2.3170    2.4760    0.3250    3.9660 2480.6389 
2086.4000  311.0000  313.4090  315.3060 2086.3999    7.1550  311.0440   97.1970    2.3070    2.4590    0.3280    4.0370 2478.1079 
2086.5000  311.0000  313.3760  315.3490 2086.5000    8.3280  314.3460   98.9820    2.2970    2.4430    0.3310    4.0730 2472.8210 
2086.6000  311.0000  313.3440  315.3920 2086.6001    8.5010  317.6480   99.2880    2.2870    2.4260    0.3340    4.0570 2466.8989 
2086.7000  311.0000  313.3110  315.4350 2086.7000    8.6650  320.7690   98.4530    2.2770    2.4100    0.3400    4.0400 2462.9819 
2086.8000  311.0000  313.2760  315.4780 2086.8000    8.7680  321.8950   96.7470    2.2670    2.3940    0.3530    4.0010 2460.7620 
2086.9000  311.0000  313.3830  315.5200 2086.8999   11.1650  322.9630   95.5620    2.2570    2.3770    0.3670    3.9490 2462.2280 
2087.0000  311.0000  313.5240  315.5630 2087.0000   13.8450  322.8290   94.7000    2.2470    2.3610    0.3800    3.8960 2465.0879 
2087.1000  311.0000  313.6640  315.6060 2087.1001   16.5190  321.9680   96.0880    2.2370    2.3410    0.3870    3.8530 2467.9309 
2087.2000  311.0000  313.8050  315.6490 2087.2000   14.9960  321.1070   97.5410    2.2340    2.3440    0.3900    3.8290 2468.0901 
2087.3000  311.0000  313.9450  315.6920 2087.3000   11.6820  320.2430   99.0420    2.2320    2.3500    0.3880    3.8140 2464.3440 
2087.4000  311.0000  314.0850  315.7350 2087.3999    8.4050  319.6130   98.6270    2.2300    2.3550    0.3890    3.8360 2460.5449 
2087.5000  311.0000  314.2260  315.7790 2087.5000    6.3230  319.8350   97.8100    2.2270    2.3600    0.3910    3.8580 2458.6521 
2087.6000  311.0000  314.3660  315.7590 2087.6001    5.3120  320.0560   97.0080    2.2250    2.3650    0.4020    3.9390 2459.8320 
2087.7000  311.0000  314.5060  315.7280 2087.7000    4.3040  320.2750   96.6760    2.2320    2.3700    0.4100    4.0160 2461.0300 
2087.8000  311.0000  314.6460  315.6980 2087.8000    3.2560  320.4960   96.8330    2.2370    2.3760    0.4140    4.0890 2462.3279 
2087.9000  311.0000  314.7870  315.6680 2087.8999   -0.1160  320.7160   97.0070    2.2420    2.3810    0.4080    4.1030 2460.0730 
2088.0000  311.0000  314.9270  315.6380 2088.0000   -3.3960  319.7920   96.7180    2.2470    2.3870    0.4000    4.1170 2457.1360 
2088.1000  311.0000  315.0670  315.6080 2088.1001   -6.5480  318.4760   96.3010    2.2530    2.3950    0.3900    4.1300 2455.6479 
2088.2000  311.0000  315.2070  315.5780 2088.2000   -6.8290  317.1620   95.8720    2.2580    2.4030    0.3800    4.1910 2456.9919 
2088.3000  311.0000  315.3510  315.5480 2088.3000   -7.0660  315.8480   96.3590    2.2630    2.4110    0.3700    4.2700 2458.3391 
2088.4000  311.0000  315.4960  315.5170 2088.3999   -5.5840  314.5340   96.9800    2.2690    2.4200    0.3610    4.3490 2459.6150 
2088.5000  311.0000  314.3280  315.4870 2088.5000   -4.1160  313.9960   98.0180    2.2740    2.4280    0.3490    4.4270 2458.1809 
2088.6000  311.0000  313.0620  315.4570 2088.6001   -4.5780  313.7460   99.0550    2.2810    2.4360    0.3520    4.4570 2454.0249 
2088.7000  311.0000  313.1550  315.4270 2088.7000   -4.9990  313.4960   99.9980    2.2910    2.4440    0.3590    4.3540 2449.6399 
2088.8000  311.0000  313.2860  315.3970 2088.8000   -5.4230  313.7990   99.4830    2.3000    2.4520    0.3780    4.2780 2445.4270 
2088.9000  311.0000  313.4200  315.3670 2088.8999   -5.8430  314.5760   98.4770    2.3090    2.4610    0.4030    4.2010 2442.9070 
2089.0000  311.0000  313.5540  315.3370 2089.0000   -5.3180  315.3570   97.0630    2.3050    2.4730    0.4280    4.1300 2447.5850 
2089.1000  311.0000  313.6870  315.3060 2089.1001   -3.4600  316.1350   95.7090    2.3020    2.4690    0.4410    4.1140 2452.1160 
2089.2000  311.0000  313.7450  315.3090 2089.2000   -1.5920  316.6700   94.8860    2.2980    2.4610    0.4380    4.0960 2456.6521 
2089.3000  311.0000  313.6820  315.3980 2089.3000    0.2700  316.8890   94.2790    2.2950    2.4520    0.4330    4.0720 2461.3230 
2089.4000  311.0000  313.6190  315.4860 2089.3999    2.1530  317.3220   94.8780    2.2920    2.4430    0.4290    3.9950 2461.5449 
2089.5000  311.0000  313.5550  315.5750 2089.5000    2.1120  317.8920   95.4540    2.2880    2.4340    0.4280    3.9170 2460.6960 
2089.6000  311.0000  313.6210  315.6630 2089.6001    1.8180  318.4610   96.0200    2.2850    2.4250    0.4310    3.8510 2460.7549 
2089.7000  311.0000  313.9510  315.7510 2089.7000    1.5280  319.0310   95.8370    2.2820    2.4170    0.4350    3.7930 2462.2939 
2089.8000  311.0000  314.2810  315.8400 2089.8000    1.2360  319.5710   95.0390    2.2770    2.4200    0.4340    3.7730 2463.8889 
2089.9000  311.0000  314.6110  315.9280 2089.8999    0.9420  318.7230   94.2310    2.2790    2.4230    0.4200    3.7580 2463.8091 
2090.0000  311.0000  314.9400  316.0170 2090.0000    1.4380  317.9190   93.4240    2.2830    2.4250    0.4060    3.7430 2463.3530 
2090.1000  311.0000  315.2530  316.1050 2090.1001    2.2140  317.1130   92.6160    2.2880    2.4280    0.3920    3.7270 2462.9199 
2090.2000  311.0000  315.1030  316.1930 2090.2000    2.9830  316.3080   91.8090    2.2920    2.4300    0.3860    3.7120 2463.7981 
2090.3000  311.0000  314.9470  316.2820 2090.3000    3.7540  315.5590   90.9980    2.2960    2.4330    0.3890    3.6980 2466.1331 
