~VERSION INFORMATION
 VERS.                 2.0:   CWLS LOG ASCII STANDARD - VERSION 2.0
 WRAP.                  NO:   SINGLE LINE PER DEPTH STEP
 CREA.                 21/06/2013 8:55:46 AM
#CREATED USING IP VERSION 4.1.2012.198 BY NEIL WATSON ON 21/06/2013 8:55:46 AM
~WELL INFORMATION
#MNEM.UNIT       DATA                          DESCRIPTION MNEMONIC
#---------      ---------------------------   --------------------------
 STRT    .M         900.0000                  : START DEPTH
 STOP    .M         3455.0000                 : STOP DEPTH
 STEP    .M         0.1000                    : STEP VALUE
 NULL    .      -999.0000                     : NULL VALUE
 SRVC    .      SCH                           : Service Company/Logging company
 DATE    .      21/06/2013                    : LAS file Creation Date
 WELL    .      SHELL PCI ET AL PANUKE B-90   : Well Name
 COMP    .      SHELL CANADA LIMITED          : Company
 FLD     .      SCOTIAN SHELF                 : Field
 STATE   .      ONTARIO                       : State
 COUNT   .      CANADA                        : Country
 LOC     .      43� 49' 11 _ 9" N|60� 42' 34 _: Location
 LATI    .      0                             : Latitude/Northing
 LONG    .      0                             : Longitude/Easting
 PDAT    .      RT                            : Permanent Datum
 EPDAT   .      0.0000                        : Elevation of Permanent Datum
 KB      .      23.3000                       : KB Elevation
 DF      .      22.7000                       : DF Elevation
 GL      .      47.0000                       : GL Elevation
 RWS     .      -999                          : Def_Rw
 WST     .      -999                          : Def_Rwt
 ERT     .      0.0000                        : RT Elevation
 CNTY    .      NOVA SCOTIA                   : County
 SRVC    .      SCH                           : Contractor
~CURVE INFORMATION
#MNEM                  UNIT       API CODE   Curve Type        Comments
#----------      --------------- ----------  --------------- -----------
 DEPTH          .M                         : Depth           
 BS             .mm                        :                 
 CALI           .MM                        : Caliper         Caliper
 CALS           .MM                        : Caliper         Caliper
 DepOffCPORtoRH .M                         : Depth           
 DRHO           .KG/M3                     : Drho            Delta Rho
 DT             .US/M                      : Sonic           Delta-T
 GR             .GAPI                      : GammaRay        Gamma Ray
 ILD            .OHMM                      : DeepRes         Deep Induction Standard Processed Resistivity
 ILM            .OHMM                      : MedRes          Medium Induction Standard Processed Resistivity
 NPHISS         .V/V                       : Neutron         NPHISS
 PE             .B/E                       : PEF             
 RHOB           .KG/M3                     : Density         Bulk Density
~A  DEPTH     BS       CALI      CALS   DepOffCP~    DRHO       DT        GR       ILD       ILM      NPHISS      PE       RHOB   
# ...
1916.8000  311.0000  317.2780  314.9390 1916.8000   11.5590  270.1830   56.5040    2.2500    2.6490    0.2370    5.0770 2521.5239 
1916.9000  311.0000  317.7010  314.8870 1916.9000   17.3340  280.2220   58.9900    2.1560    2.5210    0.2610    4.9760 2493.4280 
1917.0000  311.0000  318.1220  314.8370 1917.0000   26.5900  291.1130   63.8210    2.1150    2.3450    0.2980    4.8750 2467.1641 
1917.1000  311.0000  318.5440  314.7990 1917.1000   25.0930  302.0040   69.5820    2.0810    2.1960    0.3340    4.7740 2450.8220 
1917.2000  311.0000  318.9630  315.2580 1917.2000   18.6970  312.1260   75.3300    2.0360    2.1100    0.3710    4.6810 2437.8650 
1917.3000  311.0000  319.3960  315.7220 1917.3000   12.6830  320.3360   81.0730    1.9660    2.0280    0.3970    4.6000 2432.0830 
1917.4000  311.0000  319.0350  316.1870 1917.4000    6.6840  323.0970   86.8190    1.8980    1.9480    0.4120    4.4900 2435.3301 
1917.5000  311.0000  318.5770  316.6520 1917.5000    3.0580  323.8210   92.3300    1.8330    1.8900    0.4230    4.3690 2440.0229 
1917.6000  311.0000  318.1200  317.1180 1917.6000    2.9320  322.7650   97.0760    1.7740    1.8360    0.4290    4.2480 2446.0630 
1917.7000  311.0000  317.6640  317.5420 1917.7000    4.3860  319.8200  100.6530    1.6980    1.7840    0.4180    4.1270 2452.1001 
1917.8000  311.0000  317.2080  317.5310 1917.8000    5.8620  316.9440  101.5500    1.7090    1.7530    0.3990    4.0750 2456.6260 
1917.9000  311.0000  316.9640  317.5320 1917.9000    7.3320  309.3930   99.8370    1.7320    1.7960    0.3780    4.2500 2460.3989 
1918.0000  311.0000  317.0110  317.5320 1918.0000    8.6760  300.2100   96.8330    1.7700    1.8350    0.3580    4.4670 2471.8350 
1918.1000  311.0000  317.0620  317.5330 1918.1000    7.5240  289.3020   90.0870    1.8320    1.8980    0.3370    4.6410 2489.1101 
1918.2000  311.0000  317.1110  317.5320 1918.2000    6.3850  278.3570   82.1110    1.8950    1.9630    0.3190    4.7260 2510.7251 
1918.3000  311.0000  317.1620  317.5730 1918.3000    5.2670  267.4110   74.1400    1.9610    2.0310    0.3050    4.5280 2529.8259 
1918.4000  311.0000  316.8570  317.6240 1918.4000    5.9250  261.5130   65.9120    2.0490    2.0950    0.2900    4.3130 2515.7461 
1918.5000  311.0000  316.0600  317.6750 1918.5000    7.9880  259.8430   56.8200    2.0370    2.1510    0.2770    4.0980 2487.3550 
1918.6000  311.0000  315.2550  317.7260 1918.6000   10.0610  261.4450   53.7230    2.0210    2.2040    0.2700    4.0320 2446.0300 
1918.7000  311.0000  314.4510  317.7770 1918.7000    7.0360  267.1420   51.9380    1.9320    2.1350    0.2770    4.0150 2404.6379 
1918.8000  311.0000  313.6480  317.8280 1918.8000    1.5380  272.8910   54.7320    1.8510    2.0280    0.2890    4.0260 2363.7151 
1918.9000  311.0000  312.8440  317.8790 1918.9000   -3.9410  276.1860   57.4650    1.7740    1.9080    0.3050    4.0180 2341.7581 
1919.0000  311.0000  312.0450  317.9300 1919.0000   -9.3860  279.4810   60.1910    1.6810    1.7950    0.3130    3.9500 2326.3989 
1919.1000  311.0000  311.9420  317.9810 1919.1000  -10.0140  282.7760   62.9200    1.5850    1.6880    0.3200    3.8470 2322.7009 
1919.2000  311.0000  312.3500  318.0320 1919.2000   -7.1140  286.2210   65.6270    1.4800    1.5880    0.3260    3.7430 2319.0691 
1919.3000  311.0000  312.7600  318.0830 1919.3000   -4.1920  291.2190   67.5680    1.3640    1.4940    0.3310    3.6560 2311.0779 
1919.4000  311.0000  312.7130  318.1340 1919.4000   -1.3030  296.4560   67.4420    1.2570    1.4070    0.3310    3.5940 2300.3259 
1919.5000  311.0000  312.1280  318.1850 1919.5000   -0.6840  301.6920   65.6480    1.1590    1.3070    0.3280    3.5830 2289.6089 
1919.6000  311.0000  311.5330  318.2370 1919.6000   -2.5270  306.9290   61.8450    1.0680    1.2170    0.3220    3.5180 2282.4109 
1919.7000  311.0000  310.9470  318.2330 1919.7000   -4.4140  312.1650   57.8710    0.9490    1.1020    0.3180    3.4450 2275.6799 
1919.8000  311.0000  310.8710  317.7550 1919.8000   -5.9250  317.9980   55.0240    0.8040    0.9780    0.3270    3.3730 2258.9309 
1919.9000  311.0000  311.1540  317.2800 1919.9000   -6.5630  324.9480   52.9660    0.6810    0.8680    0.3460    3.3300 2235.3850 
1920.0000  311.0000  311.4350  316.8050 1920.0000   -7.1960  331.8980   51.9080    0.5770    0.7700    0.3690    3.3000 2200.7561 
1920.1000  311.0000  311.7160  316.3290 1920.1000   -7.8350  338.8470   50.8530    0.5060    0.6840    0.3850    3.3060 2165.8760 
1920.2000  311.0000  312.0000  315.8540 1920.2000   -8.4630  345.7930   49.7870    0.4510    0.5970    0.3990    3.3280 2136.1560 
1920.3000  311.0000  312.1600  315.3780 1920.3000   -7.8700  349.9580   49.2100    0.4390    0.5290    0.4070    3.3510 2111.0591 
1920.4000  311.0000  312.0090  314.9030 1920.4000   -6.3950  348.9270   52.0510    0.4210    0.5050    0.4080    3.3960 2113.4500 
1920.5000  311.0000  311.8590  314.4870 1920.5000   -5.1330  344.8160   55.3920    0.4260    0.4940    0.4030    3.5070 2127.4951 
1920.6000  311.0000  311.7110  314.2660 1920.6000    5.4510  340.3780   61.8480    0.4350    0.4930    0.3930    3.6470 2159.3391 
1920.7000  311.0000  311.5580  314.0460 1920.7000   17.4500  334.6180   68.2740    0.4480    0.4920    0.3830    3.7880 2221.5471 
1920.8000  311.0000  311.7890  313.8260 1920.8000   29.4100  328.8570   75.0770    0.4780    0.5580    0.3750    3.8700 2298.3740 
1920.9000  311.0000  313.0530  313.6050 1920.9000   40.6130  323.0970   81.9830    0.5160    0.6190    0.3720    3.9330 2365.3259 
1921.0000  311.0000  314.3130  313.5740 1921.0000   40.0520  317.7730   84.5410    0.5680    0.7150    0.3690    3.9930 2408.0220 
1921.1000  311.0000  314.8680  313.7700 1921.1000   34.6730  312.5740   85.3330    0.6350    0.8250    0.3610    4.1430 2446.4551 
1921.2000  311.0000  315.1130  313.9600 1921.2000   29.3070  307.1500   82.2860    0.7090    0.9510    0.3430    4.3080 2464.9460 
1921.3000  311.0000  315.3590  314.1500 1921.3000   23.8940  300.0210   76.5560    0.7910    1.0980    0.3210    4.4740 2481.1260 
1921.4000  311.0000  315.2650  314.3400 1921.4000   25.0620  292.8920   70.8420    0.8840    1.1960    0.2990    4.5700 2493.4080 
1921.5000  311.0000  314.9880  314.5310 1921.5000   26.5170  285.2220   65.7280    0.9430    1.2890    0.2720    4.3350 2491.3750 
1921.6000  311.0000  314.6970  314.7210 1921.6000   24.9810  289.6380   64.9480    0.9880    1.2560    0.2760    4.1540 2446.9470 
1921.7000  311.0000  313.3550  314.9110 1921.7000   18.7960  298.1340   66.1140    0.9450    1.1690    0.2880    3.9740 2393.6050 
1921.8000  311.0000  311.9020  315.1290 1921.8000   10.1260  308.0870   68.5530    0.9100    1.0360    0.3170    3.8290 2295.2100 
1921.9000  311.0000  310.9540  315.3980 1921.9000    1.4420  318.0580   71.0040    0.8760    0.9180    0.3520    3.8670 2241.4150 
1922.0000  311.0000  310.9520  315.6670 1922.0000   -7.2730  326.6760   72.1490    0.8420    0.8080    0.3860    3.9910 2190.7161 
1922.1000  311.0000  310.9530  315.9360 1922.1000  -12.5050  331.1570   72.4690    0.8240    0.7740    0.4130    4.1470 2161.3799 
1922.2000  311.0000  310.9530  316.2050 1922.2000  -15.3830  326.4860   71.1950    0.8050    0.7340    0.4020    4.2600 2170.9700 
1922.3000  311.0000  310.9560  316.4740 1922.3000   -8.9650  317.1090   69.2650    0.7930    0.7560    0.3830    4.3300 2188.8259 
1922.4000  311.0000  310.9260  316.7420 1922.4000    7.2040  300.3050   65.8770    0.8150    0.7860    0.3400    4.2690 2235.9751 
1922.5000  311.0000  312.2350  317.0210 1922.5000   28.9990  283.5000   62.3080    0.8530    0.8220    0.3070    4.2090 2285.8259 
1922.6000  311.0000  313.7000  316.8720 1922.6000   50.8000  266.6950   58.7470    0.9450    0.8650    0.2770    4.1490 2335.6780 
1922.7000  311.0000  315.1600  316.6990 1922.7000   72.5530  250.8230   55.2130    1.0620    0.9630    0.2540    4.1130 2385.6179 
1922.8000  311.0000  316.6520  316.5260 1922.8000   81.7450  242.7500   53.5330    1.1940    1.0690    0.2600    4.0850 2408.2871 
1922.9000  311.0000  317.6310  316.3520 1922.9000   73.2740  235.5180   51.8800    1.3430    1.1870    0.2700    4.0850 2415.4189 
