~VERSION INFORMATION
 VERS.                 2.0:   CWLS LOG ASCII STANDARD - VERSION 2.0
 WRAP.                  NO:   SINGLE LINE PER DEPTH STEP
 CREA.                 21/06/2013 8:55:46 AM
#CREATED USING IP VERSION 4.1.2012.198 BY NEIL WATSON ON 21/06/2013 8:55:46 AM
~WELL INFORMATION
#MNEM.UNIT       DATA                          DESCRIPTION MNEMONIC
#---------      ---------------------------   --------------------------
 STRT    .M         900.0000                  : START DEPTH
 STOP    .M         3455.0000                 : STOP DEPTH
 STEP    .M         0.1000                    : STEP VALUE
 NULL    .      -999.0000                     : NULL VALUE
 SRVC    .      SCH                           : Service Company/Logging company
 DATE    .      21/06/2013                    : LAS file Creation Date
 WELL    .      SHELL PCI ET AL PANUKE B-90   : Well Name
 COMP    .      SHELL CANADA LIMITED          : Company
 FLD     .      SCOTIAN SHELF                 : Field
 STATE   .      ONTARIO                       : State
 COUNT   .      CANADA                        : Country
 LOC     .      43� 49' 11 _ 9" N|60� 42' 34 _: Location
 LATI    .      0                             : Latitude/Northing
 LONG    .      0                             : Longitude/Easting
 PDAT    .      RT                            : Permanent Datum
 EPDAT   .      0.0000                        : Elevation of Permanent Datum
 KB      .      23.3000                       : KB Elevation
 DF      .      22.7000                       : DF Elevation
 GL      .      47.0000                       : GL Elevation
 RWS     .      -999                          : Def_Rw
 WST     .      -999                          : Def_Rwt
 ERT     .      0.0000                        : RT Elevation
 CNTY    .      NOVA SCOTIA                   : County
 SRVC    .      SCH                           : Contractor
~CURVE INFORMATION
#MNEM                  UNIT       API CODE   Curve Type        Comments
#----------      --------------- ----------  --------------- -----------
 DEPTH          .M                         : Depth           
 BS             .mm                        :                 
 CALI           .MM                        : Caliper         Caliper
 CALS           .MM                        : Caliper         Caliper
 DepOffCPORtoRH .M                         : Depth           
 DRHO           .KG/M3                     : Drho            Delta Rho
 DT             .US/M                      : Sonic           Delta-T
 GR             .GAPI                      : GammaRay        Gamma Ray
 ILD            .OHMM                      : DeepRes         Deep Induction Standard Processed Resistivity
 ILM            .OHMM                      : MedRes          Medium Induction Standard Processed Resistivity
 NPHISS         .V/V                       : Neutron         NPHISS
 PE             .B/E                       : PEF             
 RHOB           .KG/M3                     : Density         Bulk Density
~A  DEPTH     BS       CALI      CALS   DepOffCP~    DRHO       DT        GR       ILD       ILM      NPHISS      PE       RHOB   
# ...
1575.8000  311.0000  322.7220  313.6400 1575.8000    7.7250  283.7690   62.7150    2.0780    2.1340    0.2810    4.2360 2479.5161 
1575.9000  311.0000  322.0300  314.2080 1575.9000    4.0140  270.6540   59.6890    2.2430    2.3020    0.2480    4.1860 2505.0239 
1576.0000  311.0000  321.3390  314.7730 1576.0000    3.0400  257.5680   57.8620    2.3960    2.4820    0.2130    4.1360 2511.0911 
1576.1000  311.0000  320.6500  315.3400 1576.1000    4.4390  250.6610   56.0590    2.4590    2.6610    0.2090    4.0840 2505.0439 
1576.2000  311.0000  319.9570  315.8060 1576.2000    5.8660  247.0870   54.7680    2.5130    2.7980    0.2040    4.1360 2493.9209 
1576.3000  311.0000  320.0170  315.8870 1576.3000    7.3020  253.8940   54.1720    2.3830    2.7700    0.2000    4.2840 2472.2209 
1576.4000  311.0000  320.0950  315.9720 1576.4000    8.8230  262.6110   53.5760    2.2610    2.7100    0.2010    4.4740 2438.5291 
1576.5000  311.0000  320.1680  316.0570 1576.5000   14.5160  274.1910   53.9630    2.1130    2.5770    0.2040    4.6540 2386.6431 
1576.6000  311.0000  318.9630  316.1420 1576.6000   20.3250  287.6500   55.8660    1.9750    2.3830    0.2180    4.7340 2329.2200 
1576.7000  311.0000  317.6690  316.2270 1576.7000   25.9920  310.1070   58.1760    1.7190    1.9240    0.2550    4.6120 2269.0791 
1576.8000  311.0000  316.3720  316.3120 1576.8000   30.2980  332.5640   60.5200    1.4010    1.5530    0.2970    4.4210 2212.1069 
1576.9000  311.0000  315.0730  316.3970 1576.9000   26.1340  353.5930   62.0740    1.1410    1.2530    0.3410    4.2200 2170.5149 
1577.0000  311.0000  314.8380  316.4820 1577.0000   18.5110  368.5440   62.8570    0.9290    1.0160    0.4500    4.0240 2134.3779 
1577.1000  311.0000  315.0480  316.5000 1577.1000    9.5650  377.6230   61.8090    0.8150    0.8920    0.4500    3.8670 2109.0891 
1577.2000  311.0000  315.2640  316.4190 1577.2000    4.8730  381.0780   60.7760    0.7360    0.8100    0.4560    3.9030 2116.9629 
1577.3000  311.0000  315.8180  316.3370 1577.3000    3.3630  377.2470   59.7540    0.6890    0.7750    0.4640    3.9880 2137.8210 
1577.4000  311.0000  316.3630  316.2550 1577.4000    5.0070  373.4640   59.8040    0.6450    0.7420    0.4660    4.0990 2165.6489 
1577.5000  311.0000  316.9050  316.1730 1577.5000    8.7400  370.7340   60.5340    0.6050    0.7220    0.4650    4.2370 2193.4670 
1577.6000  311.0000  315.6140  316.0900 1577.6000   11.8710  369.4180   60.5990    0.5690    0.7080    0.4550    4.1800 2215.0620 
1577.7000  311.0000  314.2270  316.0500 1577.7000   12.1600  368.0990   59.4290    0.5400    0.6950    0.4500    4.0600 2228.4109 
1577.8000  311.0000  312.9570  316.1010 1577.8000    8.1540  366.9970   57.2750    0.5220    0.6810    0.4440    3.8720 2217.2041 
1577.9000  311.0000  313.0600  316.1530 1577.9000    4.1650  365.9030   54.2750    0.5110    0.6640    0.4280    3.7640 2199.7461 
1578.0000  311.0000  313.1800  316.2040 1578.0000    0.1940  366.1670   51.2050    0.5080    0.6480    0.4080    3.6780 2182.3831 
1578.1000  311.0000  313.0630  316.2560 1578.1000   -2.7810  366.4300   50.0910    0.5060    0.6330    0.3890    3.6740 2164.9761 
1578.2000  311.0000  312.8940  316.1590 1578.2000   -5.1860  366.6920   49.4390    0.5040    0.6180    0.3820    3.6970 2157.6699 
1578.3000  311.0000  312.7260  315.7300 1578.3000   -6.3110  366.9550   51.6630    0.5020    0.6120    0.3780    3.7190 2152.7200 
1578.4000  311.0000  312.5580  315.3010 1578.4000   -7.4150  367.2170   53.6080    0.5000    0.6110    0.3760    3.7410 2149.4141 
1578.5000  311.0000  312.3900  314.8640 1578.5000   -4.7390  368.4720   55.6370    0.4990    0.6090    0.3800    3.7650 2152.5129 
1578.6000  311.0000  312.2210  314.7140 1578.6000   -0.4040  370.1790   57.6540    0.4970    0.6080    0.3920    3.8120 2161.9250 
1578.7000  311.0000  312.0530  314.6270 1578.7000   10.5740  371.8850   60.1450    0.5060    0.6290    0.4080    3.8610 2183.5049 
1578.8000  311.0000  311.8850  314.5390 1578.8000   24.0980  370.9150   63.0970    0.5150    0.6460    0.4250    3.9100 2211.2180 
1578.9000  311.0000  311.7170  314.4510 1578.9000   37.5700  368.4690   67.1810    0.5360    0.6650    0.4390    3.8960 2238.9570 
1579.0000  311.0000  311.5480  314.3630 1579.0000   50.7540  366.0230   70.9210    0.5590    0.6880    0.4470    3.8350 2266.9189 
1579.1000  311.0000  311.3800  314.2750 1579.1000   56.1360  364.3690   74.3600    0.5830    0.7130    0.4420    3.7760 2289.6880 
1579.2000  311.0000  311.2120  314.1870 1579.2000   42.5430  364.8880   77.8060    0.6060    0.7380    0.4340    3.7170 2276.8000 
1579.3000  311.0000  311.0440  314.0990 1579.3000   30.7540  365.8820   79.3240    0.6290    0.7640    0.4250    3.7200 2259.9641 
1579.4000  311.0000  310.8760  314.0110 1579.4000   18.9520  365.2420   79.9750    0.6530    0.7920    0.4160    3.7180 2239.5210 
1579.5000  311.0000  310.7110  313.9230 1579.5000   10.8740  362.6490   79.1080    0.6770    0.8160    0.4070    3.7140 2233.4009 
1579.6000  311.0000  310.8430  313.8350 1579.6000    8.5880  357.0540   78.2410    0.6990    0.8370    0.3970    3.6620 2238.5371 
1579.7000  311.0000  310.9850  313.7470 1579.7000    9.1810  351.4700   77.3690    0.7060    0.8460    0.3940    3.6050 2252.7480 
1579.8000  311.0000  311.1270  313.6590 1579.8000    9.8180  347.2480   76.6180    0.7140    0.8460    0.3940    3.5490 2266.9470 
1579.9000  311.0000  311.2690  313.5710 1579.9000   10.4240  346.5030   76.2240    0.7040    0.8360    0.3960    3.4930 2274.2361 
1580.0000  311.0000  311.4110  313.4830 1580.0000    9.3200  348.7300   75.8140    0.6940    0.8210    0.3970    3.4350 2264.6890 
1580.1000  311.0000  311.5530  313.3960 1580.1000    6.8680  350.9510   74.8480    0.6820    0.8070    0.3930    3.4480 2241.7070 
1580.2000  311.0000  311.6960  313.3030 1580.2000    4.4730  353.1720   73.8600    0.6890    0.7860    0.3870    3.4760 2218.6211 
1580.3000  311.0000  311.8320  313.4250 1580.3000    6.7990  354.9720   72.8710    0.6990    0.7920    0.3810    3.5040 2198.5449 
1580.4000  311.0000  312.2480  313.6090 1580.4000   16.6880  353.8060   71.8960    0.7090    0.8040    0.3740    3.5330 2215.8191 
1580.5000  311.0000  313.9340  313.7910 1580.5000   33.7790  350.5530   72.0280    0.7340    0.8180    0.3740    3.4860 2260.5820 
1580.6000  311.0000  315.5820  313.9740 1580.6000   50.7710  346.6120   73.5540    0.7630    0.8440    0.3750    3.4280 2315.6011 
1580.7000  311.0000  317.2260  314.1560 1580.7000   61.0050  342.6740   75.9230    0.7920    0.8720    0.3780    3.3700 2370.1240 
1580.8000  311.0000  318.0810  314.3390 1580.8000   49.6510  338.7360   78.5450    0.8230    0.9110    0.3830    3.3160 2391.9399 
1580.9000  311.0000  318.3350  314.5210 1580.9000   32.0590  336.8220   81.1670    0.8590    0.9540    0.3890    3.2670 2399.8040 
1581.0000  311.0000  318.3910  314.7040 1581.0000   14.5490  336.0140   83.5480    0.9040    1.0190    0.3960    3.2200 2383.7759 
1581.1000  311.0000  318.3120  314.8870 1581.1000    1.3580  336.2290   85.0620    0.9520    1.0910    0.4020    3.1950 2367.6650 
1581.2000  311.0000  318.2340  315.0000 1581.2000   -0.2200  336.9510   85.3500    1.0250    1.1690    0.4080    3.1920 2355.8811 
1581.3000  311.0000  318.1550  314.7720 1581.3000    3.0170  337.6720   85.6310    1.1130    1.2530    0.4130    3.2430 2349.2959 
1581.4000  311.0000  318.0770  314.5500 1581.4000    6.3160  337.3280   85.9160    1.2090    1.3440    0.4090    3.3190 2349.8899 
1581.5000  311.0000  317.9970  314.3280 1581.5000    9.6110  336.6910   86.0370    1.2980    1.3790    0.4040    3.3940 2352.6189 
1581.6000  311.0000  318.0150  314.1060 1581.6000   12.9060  336.5600   85.1810    1.3360    1.4160    0.3960    3.4660 2360.6069 
1581.7000  311.0000  318.8100  313.8860 1581.7000   16.1950  334.9940   84.3370    1.3750    1.4620    0.3890    3.4950 2368.5229 
1581.8000  311.0000  319.6020  313.8560 1581.8000   18.6830  333.2440   83.6890    1.4150    1.5110    0.3850    3.5170 2376.7319 
1581.9000  311.0000  320.3940  313.9770 1581.9000   19.8920  331.5010   84.5040    1.4560    1.5360    0.3860    3.4760 2380.9460 
