~VERSION INFORMATION
 VERS.                 2.0:   CWLS LOG ASCII STANDARD - VERSION 2.0
 WRAP.                  NO:   SINGLE LINE PER DEPTH STEP
 CREA.                 21/06/2013 8:55:46 AM
#CREATED USING IP VERSION 4.1.2012.198 BY NEIL WATSON ON 21/06/2013 8:55:46 AM
~WELL INFORMATION
#MNEM.UNIT       DATA                          DESCRIPTION MNEMONIC
#---------      ---------------------------   --------------------------
 STRT    .M         900.0000                  : START DEPTH
 STOP    .M         3455.0000                 : STOP DEPTH
 STEP    .M         0.1000                    : STEP VALUE
 NULL    .      -999.0000                     : NULL VALUE
 SRVC    .      SCH                           : Service Company/Logging company
 DATE    .      21/06/2013                    : LAS file Creation Date
 WELL    .      SHELL PCI ET AL PANUKE B-90   : Well Name
 COMP    .      SHELL CANADA LIMITED          : Company
 FLD     .      SCOTIAN SHELF                 : Field
 STATE   .      ONTARIO                       : State
 COUNT   .      CANADA                        : Country
 LOC     .      43� 49' 11 _ 9" N|60� 42' 34 _: Location
 LATI    .      0                             : Latitude/Northing
 LONG    .      0                             : Longitude/Easting
 PDAT    .      RT                            : Permanent Datum
 EPDAT   .      0.0000                        : Elevation of Permanent Datum
 KB      .      23.3000                       : KB Elevation
 DF      .      22.7000                       : DF Elevation
 GL      .      47.0000                       : GL Elevation
 RWS     .      -999                          : Def_Rw
 WST     .      -999                          : Def_Rwt
 ERT     .      0.0000                        : RT Elevation
 CNTY    .      NOVA SCOTIA                   : County
 SRVC    .      SCH                           : Contractor
~CURVE INFORMATION
#MNEM                  UNIT       API CODE   Curve Type        Comments
#----------      --------------- ----------  --------------- -----------
 DEPTH          .M                         : Depth           
 BS             .mm                        :                 
 CALI           .MM                        : Caliper         Caliper
 CALS           .MM                        : Caliper         Caliper
 DepOffCPORtoRH .M                         : Depth           
 DRHO           .KG/M3                     : Drho            Delta Rho
 DT             .US/M                      : Sonic           Delta-T
 GR             .GAPI                      : GammaRay        Gamma Ray
 ILD            .OHMM                      : DeepRes         Deep Induction Standard Processed Resistivity
 ILM            .OHMM                      : MedRes          Medium Induction Standard Processed Resistivity
 NPHISS         .V/V                       : Neutron         NPHISS
 PE             .B/E                       : PEF             
 RHOB           .KG/M3                     : Density         Bulk Density
~A  DEPTH     BS       CALI      CALS   DepOffCP~    DRHO       DT        GR       ILD       ILM      NPHISS      PE       RHOB   
# ...
2425.2000  311.0000  306.8290  313.4190 2425.2000  -17.3000  274.3640   82.3890    2.8620    3.3320    0.3070    3.5490 2548.7900 
2425.3000  311.0000  306.9960  313.5410 2425.3000  -17.9110  270.0810   74.0680    2.8230    3.3170    0.3010    3.3430 2544.6460 
2425.4000  311.0000  306.6870  313.6630 2425.3999  -17.1430  264.5720   65.6730    2.7900    3.3020    0.2860    3.1380 2531.0879 
2425.5000  311.0000  306.3890  313.7850 2425.5000  -15.4560  259.0620   57.6940    2.7570    3.2860    0.2650    2.9980 2516.6040 
2425.6000  311.0000  306.0900  313.9070 2425.6001  -12.6960  254.6660   52.7290    2.7250    3.2710    0.2430    2.9960 2502.0610 
2425.7000  311.0000  305.7910  314.0310 2425.7000  -10.5530  252.0220   54.5090    2.6930    3.2560    0.2290    3.0550 2496.0249 
2425.8000  311.0000  305.4920  314.0830 2425.8000  -10.4460  253.6950   58.7530    2.6620    3.2410    0.2250    3.1360 2494.6499 
2425.9000  311.0000  305.1980  314.1430 2425.8999  -10.3170  256.0210   67.8470    2.6400    3.2260    0.2360    3.2170 2506.9971 
2426.0000  311.0000  305.2350  314.2030 2426.0000  -10.1720  259.2530   76.8700    2.6180    3.2140    0.2450    3.2890 2516.6951 
2426.1000  311.0000  305.6000  314.2630 2426.1001   -8.3210  262.4860   83.1890    2.5960    3.1230    0.2550    3.3350 2526.3269 
2426.2000  311.0000  305.9700  314.3230 2426.2000   -3.7600  265.7180   86.2220    2.5750    3.0390    0.2630    3.2770 2535.8730 
2426.3000  311.0000  306.3400  314.3820 2426.3000    3.5330  264.8790   82.2450    2.5530    2.9570    0.2660    3.1900 2533.0449 
2426.4000  311.0000  306.7090  314.4420 2426.3999   10.6300  262.8250   74.7010    2.5310    2.8770    0.2670    3.1040 2525.6179 
2426.5000  311.0000  307.0780  314.5010 2426.5000   17.7650  260.5790   66.7710    2.4890    2.8000    0.2640    3.0160 2515.3250 
2426.6000  311.0000  307.3030  314.4160 2426.6001   21.6050  258.3400   60.8730    2.4450    2.7240    0.2590    3.0280 2504.9519 
2426.7000  311.0000  307.4010  314.1500 2426.7000   21.5030  256.0960   55.9650    2.4020    2.6510    0.2530    3.0730 2497.5381 
2426.8000  311.0000  307.4970  313.8820 2426.8000   18.8660  253.8530   52.1500    2.3600    2.5850    0.2480    3.1450 2500.8750 
2426.9000  311.0000  307.5940  313.6140 2426.8999   12.7860  251.4730   51.1640    2.3090    2.5530    0.2450    3.2350 2504.0049 
2427.0000  311.0000  307.6910  313.3460 2427.0000    5.2550  249.6780   50.2330    2.3240    2.5080    0.2440    3.3250 2507.1599 
2427.1000  311.0000  307.7950  313.0790 2427.1001   -2.2420  248.1370   51.3180    2.3430    2.5230    0.2440    3.4140 2510.3889 
2427.2000  311.0000  308.2320  312.8130 2427.2000   -9.7470  247.6110   53.2390    2.3620    2.5520    0.2420    3.5040 2513.6870 
2427.3000  311.0000  308.6940  313.1850 2427.3000  -17.2250  247.0800   56.4890    2.4290    2.5800    0.2390    3.5930 2516.9700 
2427.4000  311.0000  309.1560  313.6210 2427.3999  -24.9350  246.8250   60.7330    2.4940    2.6560    0.2370    3.6570 2519.4080 
2427.5000  311.0000  309.6180  314.0560 2427.5000  -26.6950  247.4890   64.9760    2.5740    2.7560    0.2380    3.6850 2521.1521 
2427.6000  311.0000  310.0350  314.4920 2427.6001  -27.9000  247.8270   69.2140    2.6700    2.8630    0.2430    3.5730 2522.9790 
2427.7000  311.0000  309.7120  314.9340 2427.7000  -25.7540  247.7020   73.3380    2.7700    2.9890    0.2430    3.4800 2528.3540 
2427.8000  311.0000  309.3630  314.7130 2427.8000  -23.6620  247.5630   75.5530    2.8780    3.1200    0.2400    3.3860 2536.9700 
2427.9000  311.0000  309.0130  314.2830 2427.8999  -21.5630  248.1100   77.2430    2.9850    3.2570    0.2350    3.3100 2549.2800 
2428.0000  311.0000  308.6640  313.8500 2428.0000  -19.4560  251.1410   78.0830    3.1000    3.4010    0.2330    3.2960 2561.5161 
2428.1000  311.0000  308.3140  313.6910 2428.1001  -18.6820  254.2010   78.9190    3.1740    3.5390    0.2370    3.3120 2572.7529 
2428.2000  311.0000  307.9650  314.3050 2428.2000  -18.3790  257.6060   79.9790    3.2140    3.5220    0.2490    3.3340 2579.6550 
2428.3000  311.0000  307.6080  314.9150 2428.3000  -19.9580  261.0200   81.5300    3.2010    3.5070    0.2640    3.3550 2577.6609 
2428.4000  311.0000  307.4710  315.5260 2428.3999  -21.7210  264.4380   83.0790    3.1870    3.4910    0.2800    3.3780 2575.6609 
2428.5000  311.0000  307.3830  316.0370 2428.5000  -23.5300  268.1370   84.8930    3.1720    3.4750    0.2920    3.4790 2573.6289 
2428.6000  311.0000  307.2940  315.9860 2428.6001  -22.3650  272.5070   88.4980    3.1120    3.3970    0.3030    3.6200 2572.0110 
2428.7000  311.0000  307.2050  315.9470 2428.7000  -20.7550  276.8770   92.1110    3.0420    3.3190    0.3140    3.7180 2574.3340 
2428.8000  311.0000  307.1170  315.9070 2428.8000  -19.1410  281.2480   95.7140    2.9740    3.2250    0.3250    3.8850 2576.6011 
2428.9000  311.0000  307.0280  315.8670 2428.8999  -18.2590  285.6290   98.9190    2.9090    3.1340    0.3350    4.0550 2578.8799 
2429.0000  311.0000  306.9390  315.8270 2429.0000  -20.2930  289.8290  101.7580    2.8580    3.0440    0.3420    4.1640 2580.9971 
2429.1000  311.0000  306.8500  315.7850 2429.1001  -22.2530  292.7190  103.8290    2.8080    2.9850    0.3450    4.2000 2582.1990 
2429.2000  311.0000  306.7610  315.6780 2429.2000  -24.2170  291.7740  105.9360    2.7580    2.9330    0.3420    4.0880 2577.6470 
2429.3000  311.0000  306.6730  315.5650 2429.3000  -26.1610  289.6310  106.4950    2.7100    2.8830    0.3340    3.9670 2571.4780 
2429.4000  311.0000  306.5840  315.4520 2429.3999  -26.5720  287.4880  105.9300    2.6620    2.8490    0.3260    3.8470 2563.6631 
2429.5000  311.0000  306.5760  315.3390 2429.5000  -25.5320  285.3460  103.2170    2.6150    2.8170    0.3190    3.7920 2560.2339 
2429.6000  311.0000  306.7140  315.2260 2429.6001  -24.2520  282.2260  100.5360    2.5690    2.7860    0.3140    3.7820 2562.1660 
2429.7000  311.0000  306.8510  315.1130 2429.7000  -22.0200  276.0580   97.8620    2.5390    2.7490    0.3100    3.7710 2566.3269 
2429.8000  311.0000  306.9880  315.0010 2429.8000  -19.8480  266.7420   94.3620    2.5290    2.7570    0.3070    3.6970 2566.8589 
2429.9000  311.0000  307.1250  314.8880 2429.8999  -17.6820  257.4250   89.4760    2.5190    2.7670    0.2960    3.5960 2564.5869 
2430.0000  311.0000  307.2610  314.7750 2430.0000  -15.5010  248.1090   80.8400    2.5100    2.7910    0.2730    3.4940 2557.5540 
2430.1000  311.0000  307.3980  314.6620 2430.1001  -16.8890  238.7920   71.0100    2.5000    2.8670    0.2360    3.4450 2550.6411 
2430.2000  311.0000  307.5350  314.5490 2430.2000  -18.6160  230.0760   58.4620    2.4910    2.9460    0.1990    3.3950 2544.8391 
2430.3000  311.0000  307.6740  314.4360 2430.3000  -20.7990  225.3090   46.3880    2.4560    3.0260    0.1730    3.3200 2545.2690 
2430.4000  311.0000  307.7330  314.3230 2430.3999  -23.3480  222.9160   40.9000    2.3750    3.0980    0.1570    3.2260 2538.6050 
2430.5000  311.0000  307.2080  314.2100 2430.5000  -25.8690  225.9110   36.9080    2.2960    3.0560    0.1610    3.1300 2520.3259 
2430.6000  311.0000  306.6900  314.0990 2430.6001  -25.2590  229.7970   35.1320    2.2190    2.9490    0.1670    3.0370 2482.1909 
2430.7000  311.0000  306.1710  314.0900 2430.7000  -21.7140  233.9210   33.3720    2.1460    2.8020    0.1740    3.0240 2440.1279 
2430.8000  311.0000  305.6520  314.2020 2430.8000  -15.1450  238.0440   31.9130    2.0740    2.6620    0.1800    3.0710 2403.0491 
2430.9000  311.0000  305.1320  314.3170 2430.8999   -8.4980  241.3650   30.7740    2.0050    2.5290    0.1840    3.1380 2381.9741 
2431.0000  311.0000  304.8660  314.4310 2431.0000   -6.9220  244.1530   30.2000    1.9390    2.4020    0.1880    3.2050 2366.3101 
2431.1000  311.0000  305.0650  314.5450 2431.1001   -7.7650  246.9400   31.1150    1.8740    2.2800    0.2020    3.2730 2356.6321 
2431.2000  311.0000  305.2660  314.6600 2431.2000  -10.8590  249.7280   33.3800    1.8240    2.1650    0.2160    3.3220 2351.0769 
2431.3000  311.0000  305.4660  314.7740 2431.3000  -13.8530  250.7280   35.6720    1.7960    2.0550    0.2300    3.3650 2356.5049 
