~VERSION INFORMATION
 VERS.                 2.0:   CWLS LOG ASCII STANDARD - VERSION 2.0
 WRAP.                  NO:   SINGLE LINE PER DEPTH STEP
 CREA.                 21/06/2013 8:55:46 AM
#CREATED USING IP VERSION 4.1.2012.198 BY NEIL WATSON ON 21/06/2013 8:55:46 AM
~WELL INFORMATION
#MNEM.UNIT       DATA                          DESCRIPTION MNEMONIC
#---------      ---------------------------   --------------------------
 STRT    .M         900.0000                  : START DEPTH
 STOP    .M         3455.0000                 : STOP DEPTH
 STEP    .M         0.1000                    : STEP VALUE
 NULL    .      -999.0000                     : NULL VALUE
 SRVC    .      SCH                           : Service Company/Logging company
 DATE    .      21/06/2013                    : LAS file Creation Date
 WELL    .      SHELL PCI ET AL PANUKE B-90   : Well Name
 COMP    .      SHELL CANADA LIMITED          : Company
 FLD     .      SCOTIAN SHELF                 : Field
 STATE   .      ONTARIO                       : State
 COUNT   .      CANADA                        : Country
 LOC     .      43� 49' 11 _ 9" N|60� 42' 34 _: Location
 LATI    .      0                             : Latitude/Northing
 LONG    .      0                             : Longitude/Easting
 PDAT    .      RT                            : Permanent Datum
 EPDAT   .      0.0000                        : Elevation of Permanent Datum
 KB      .      23.3000                       : KB Elevation
 DF      .      22.7000                       : DF Elevation
 GL      .      47.0000                       : GL Elevation
 RWS     .      -999                          : Def_Rw
 WST     .      -999                          : Def_Rwt
 ERT     .      0.0000                        : RT Elevation
 CNTY    .      NOVA SCOTIA                   : County
 SRVC    .      SCH                           : Contractor
~CURVE INFORMATION
#MNEM                  UNIT       API CODE   Curve Type        Comments
#----------      --------------- ----------  --------------- -----------
 DEPTH          .M                         : Depth           
 BS             .mm                        :                 
 CALI           .MM                        : Caliper         Caliper
 CALS           .MM                        : Caliper         Caliper
 DepOffCPORtoRH .M                         : Depth           
 DRHO           .KG/M3                     : Drho            Delta Rho
 DT             .US/M                      : Sonic           Delta-T
 GR             .GAPI                      : GammaRay        Gamma Ray
 ILD            .OHMM                      : DeepRes         Deep Induction Standard Processed Resistivity
 ILM            .OHMM                      : MedRes          Medium Induction Standard Processed Resistivity
 NPHISS         .V/V                       : Neutron         NPHISS
 PE             .B/E                       : PEF             
 RHOB           .KG/M3                     : Density         Bulk Density
~A  DEPTH     BS       CALI      CALS   DepOffCP~    DRHO       DT        GR       ILD       ILM      NPHISS      PE       RHOB   
# ...
1749.4000  311.0000  315.1650  312.5510 1749.4000    1.3820  325.7220   81.6080    1.6400    1.6700    0.3580    3.5140 2444.1599 
1749.5000  311.0000  314.9350  312.9170 1749.5000    0.9260  324.7980   80.6530    1.6880    1.6750    0.3670    3.5460 2441.7891 
1749.6000  311.0000  314.7050  313.3020 1749.6000    2.6180  324.6320   80.2550    1.7190    1.6790    0.3760    3.5780 2440.4160 
1749.7000  311.0000  314.4750  313.6880 1749.7000    4.3380  326.1270   81.0090    1.7330    1.6840    0.3860    3.6100 2444.1680 
1749.8000  311.0000  314.2450  314.0740 1749.8000    6.0260  327.5590   82.8340    1.7460    1.7000    0.3960    3.6250 2447.8130 
1749.9000  311.0000  314.0150  314.4600 1749.9000    5.5800  328.7740   85.7030    1.7670    1.7170    0.4020    3.6100 2451.4670 
1750.0000  311.0000  313.7880  314.8450 1750.0000    3.6390  328.5950   88.0020    1.7980    1.7330    0.4020    3.5950 2454.8511 
1750.1000  311.0000  313.8590  315.2340 1750.1000    1.6940  328.1460   89.2830    1.8290    1.7500    0.3960    3.5790 2455.7200 
1750.2000  311.0000  314.1970  315.3080 1750.2000    0.2360  328.5380   88.3070    1.8620    1.7670    0.3900    3.5840 2456.6641 
1750.3000  311.0000  314.5370  315.3330 1750.3000    0.2500  329.5500   85.5420    1.8800    1.7840    0.3810    3.6530 2459.7939 
1750.4000  311.0000  314.8770  315.3600 1750.4000    0.2500  328.5030   82.7550    1.8840    1.8020    0.3850    3.7590 2462.9131 
1750.5000  311.0000  315.1920  315.3860 1750.5000    0.2450  327.5000   80.1230    1.8890    1.8080    0.3920    3.8660 2466.0320 
1750.6000  311.0000  315.1940  315.4120 1750.6000    0.2930  327.7210   81.3380    1.8950    1.8140    0.4010    3.9300 2465.2339 
1750.7000  311.0000  315.1950  315.4380 1750.7000   -2.0360  329.3670   83.1130    1.8720    1.8200    0.4040    3.9850 2463.0710 
1750.8000  311.0000  315.1950  315.4640 1750.8000   -4.7360  331.0120   84.8890    1.8320    1.8260    0.4010    3.9700 2457.8220 
1750.9000  311.0000  315.1950  315.4900 1750.9000   -7.3870  332.1940   85.4540    1.7930    1.8320    0.3950    3.9690 2452.5979 
1751.0000  311.0000  314.9380  315.5160 1751.0000   -7.2660  331.9530   85.2250    1.7290    1.8350    0.3880    4.0500 2444.9390 
1751.1000  311.0000  314.5500  315.5430 1751.1000   -4.5130  330.3360   83.3400    1.6270    1.7270    0.3810    4.1430 2436.0339 
1751.2000  311.0000  314.1640  315.5730 1751.2000   -1.7230  328.7160   80.7440    1.5260    1.6050    0.3830    4.3030 2426.5271 
1751.3000  311.0000  313.7770  315.6030 1751.3000    1.0690  327.0960   78.1490    1.3830    1.4740    0.3900    4.4640 2409.9241 
1751.4000  311.0000  313.3880  315.6330 1751.4000    3.8110  327.5920   75.5620    1.2360    1.3530    0.3990    4.5610 2380.3540 
1751.5000  311.0000  312.8610  315.6620 1751.5000    3.1520  331.9830   72.3150    1.1030    1.2300    0.4070    4.5840 2345.2661 
1751.6000  311.0000  312.1980  315.6920 1751.6000   -0.8560  338.1540   67.9010    0.9850    1.1020    0.4150    4.5570 2311.1909 
1751.7000  311.0000  311.5330  315.7220 1751.7000   -4.9140  344.3250   63.4760    0.8800    0.9870    0.4170    4.5000 2278.8579 
1751.8000  311.0000  310.8670  315.7510 1751.8000   -8.9570  350.4960   59.0530    0.7970    0.8840    0.4160    4.3850 2250.8521 
1751.9000  311.0000  310.2020  315.7810 1751.9000  -13.1030  356.6660   54.6370    0.7230    0.7940    0.4110    4.2420 2227.9470 
1752.0000  311.0000  309.5320  315.8100 1752.0000  -14.6830  362.8370   51.1520    0.6550    0.7150    0.4060    4.0980 2204.7170 
1752.1000  311.0000  309.1320  315.8400 1752.1000  -16.2450  369.0080   48.1960    0.5690    0.6430    0.4100    3.9550 2175.8010 
1752.2000  311.0000  310.6920  315.8700 1752.2000  -15.8990  375.2750   45.3930    0.4820    0.5920    0.4170    3.8360 2144.0500 
1752.3000  311.0000  312.3190  315.8990 1752.3000  -12.4040  382.6560   42.7450    0.4280    0.5550    0.4240    3.8070 2112.4319 
1752.4000  311.0000  318.5530  315.9290 1752.4000   -8.1440  390.0370   41.0070    0.3980    0.5220    0.4350    3.8110 2085.4031 
1752.5000  311.0000  324.6300  315.9590 1752.5000   -1.5460  397.4300   40.0970    0.3790    0.4970    0.4500    3.8150 2061.3960 
1752.6000  311.0000  326.8310  315.9880 1752.6000    5.0290  404.8330   41.2830    0.3700    0.4730    0.4500    3.8020 2057.0581 
1752.7000  311.0000  326.8030  316.0180 1752.7000   11.2080  407.7920   42.4680    0.3600    0.4430    0.4500    3.7990 2061.4341 
1752.8000  311.0000  322.9480  315.9700 1752.8000   12.6000  409.8390   42.8540    0.3560    0.4460    0.4490    3.8480 2080.1470 
1752.9000  311.0000  322.5470  315.7680 1752.9000   12.8910  407.6030   43.1400    0.3700    0.4510    0.4490    3.9210 2112.4819 
1753.0000  311.0000  321.9670  315.5650 1753.0000   12.3040  401.6330   43.9780    0.3820    0.4660    0.4450    4.0150 2151.3640 
1753.1000  311.0000  322.7050  315.3620 1753.1000   11.7060  391.9110   46.4090    0.4010    0.5010    0.4390    4.1350 2201.5061 
1753.2000  311.0000  323.3520  315.1600 1753.2000   11.1080  379.1650   52.5890    0.4240    0.5590    0.4360    4.3310 2251.0830 
1753.3000  311.0000  321.3700  314.9570 1753.3000   10.5100  363.6600   59.2730    0.4470    0.6230    0.4340    4.5280 2300.7190 
1753.4000  311.0000  319.4240  314.7540 1753.4000    9.9060  348.1300   65.9690    0.5260    0.6940    0.4310    4.8060 2350.4810 
1753.5000  311.0000  317.4540  314.5520 1753.5000    9.3820  333.1170   70.6370    0.6150    0.7530    0.4190    5.1450 2397.5200 
1753.6000  311.0000  316.8740  314.3490 1753.6000    5.5150  321.7670   72.8440    0.7130    0.7990    0.4060    5.5930 2437.8521 
1753.7000  311.0000  316.5090  314.1500 1753.7000    1.1690  324.2150   71.7810    0.7890    0.8640    0.3970    6.0390 2459.5591 
1753.8000  311.0000  316.2570  314.2630 1753.8000   -3.1580  328.9570   69.8020    0.8730    0.9640    0.3900    6.4860 2481.5940 
1753.9000  311.0000  316.8460  314.7490 1753.9000   -6.5450  347.1560   67.2750    0.9660    1.0760    0.4000    6.9040 2493.1360 
1754.0000  311.0000  317.4220  315.2400 1754.0000   -9.0510  362.8430   64.7550    1.0690    1.2010    0.4130    7.3670 2499.3130 
1754.1000  311.0000  317.9990  315.7300 1754.1000  -11.6140  367.1050   62.2330    1.1830    1.2850    0.4260    7.7820 2491.3059 
1754.2000  311.0000  318.5770  316.2200 1754.2000   -9.7540  354.5980   60.1040    1.2640    1.3110    0.4390    7.8890 2472.3491 
1754.3000  311.0000  319.1470  316.7100 1754.3000   -7.6680  341.5380   58.7530    1.3130    1.3380    0.4390    7.6360 2453.2119 
1754.4000  311.0000  319.1580  317.2020 1754.4000   -5.5740  335.9150   57.4230    1.3440    1.3600    0.4400    7.2780 2434.0129 
1754.5000  311.0000  318.6350  317.5210 1754.5000   -3.4910  331.4870   57.4010    1.3690    1.3830    0.4440    6.9190 2412.8259 
1754.6000  311.0000  318.1040  317.4850 1754.6000   -1.3290  327.7500   58.9830    1.3940    1.4050    0.4490    6.5820 2418.0039 
1754.7000  311.0000  317.5760  317.4480 1754.7000   -1.3610  318.7000   60.5850    1.4740    1.4280    0.4410    6.3160 2429.4529 
1754.8000  311.0000  317.0220  317.4120 1754.8000   -1.4730  309.6310   62.2190    1.5570    1.4860    0.4170    6.1210 2458.8379 
1754.9000  311.0000  317.6940  317.3760 1754.9000   -1.5960  299.4370   62.9870    1.6440    1.5990    0.3740    5.9260 2493.3191 
1755.0000  311.0000  318.6400  317.3400 1755.0000   -1.7110  286.6120   60.8750    1.7370    1.7530    0.3230    5.6280 2527.0210 
1755.1000  311.0000  319.5730  317.3040 1755.1000    1.3630  270.2760   55.6080    1.8350    1.9220    0.2570    5.2940 2549.8750 
1755.2000  311.0000  319.9820  317.2670 1755.2000    7.0290  254.6310   49.1860    1.9520    2.0950    0.2300    4.9600 2555.6550 
1755.3000  311.0000  320.0560  317.2310 1755.3000   19.0230  244.2840   42.7350    2.0980    2.2440    0.2030    4.6100 2551.0750 
1755.4000  311.0000  320.1300  317.1950 1755.4000   37.2320  245.7460   36.9500    2.2290    2.4050    0.1900    4.3660 2539.3550 
1755.5000  311.0000  320.4170  317.1590 1755.5000   56.2630  249.0890   34.0980    2.3320    2.4160    0.1880    4.1270 2525.7749 
