~VERSION INFORMATION
 VERS.                 2.0:   CWLS LOG ASCII STANDARD - VERSION 2.0
 WRAP.                  NO:   SINGLE LINE PER DEPTH STEP
 CREA.                 21/06/2013 8:55:46 AM
#CREATED USING IP VERSION 4.1.2012.198 BY NEIL WATSON ON 21/06/2013 8:55:46 AM
~WELL INFORMATION
#MNEM.UNIT       DATA                          DESCRIPTION MNEMONIC
#---------      ---------------------------   --------------------------
 STRT    .M         900.0000                  : START DEPTH
 STOP    .M         3455.0000                 : STOP DEPTH
 STEP    .M         0.1000                    : STEP VALUE
 NULL    .      -999.0000                     : NULL VALUE
 SRVC    .      SCH                           : Service Company/Logging company
 DATE    .      21/06/2013                    : LAS file Creation Date
 WELL    .      SHELL PCI ET AL PANUKE B-90   : Well Name
 COMP    .      SHELL CANADA LIMITED          : Company
 FLD     .      SCOTIAN SHELF                 : Field
 STATE   .      ONTARIO                       : State
 COUNT   .      CANADA                        : Country
 LOC     .      43� 49' 11 _ 9" N|60� 42' 34 _: Location
 LATI    .      0                             : Latitude/Northing
 LONG    .      0                             : Longitude/Easting
 PDAT    .      RT                            : Permanent Datum
 EPDAT   .      0.0000                        : Elevation of Permanent Datum
 KB      .      23.3000                       : KB Elevation
 DF      .      22.7000                       : DF Elevation
 GL      .      47.0000                       : GL Elevation
 RWS     .      -999                          : Def_Rw
 WST     .      -999                          : Def_Rwt
 ERT     .      0.0000                        : RT Elevation
 CNTY    .      NOVA SCOTIA                   : County
 SRVC    .      SCH                           : Contractor
~CURVE INFORMATION
#MNEM                  UNIT       API CODE   Curve Type        Comments
#----------      --------------- ----------  --------------- -----------
 DEPTH          .M                         : Depth           
 BS             .mm                        :                 
 CALI           .MM                        : Caliper         Caliper
 CALS           .MM                        : Caliper         Caliper
 DepOffCPORtoRH .M                         : Depth           
 DRHO           .KG/M3                     : Drho            Delta Rho
 DT             .US/M                      : Sonic           Delta-T
 GR             .GAPI                      : GammaRay        Gamma Ray
 ILD            .OHMM                      : DeepRes         Deep Induction Standard Processed Resistivity
 ILM            .OHMM                      : MedRes          Medium Induction Standard Processed Resistivity
 NPHISS         .V/V                       : Neutron         NPHISS
 PE             .B/E                       : PEF             
 RHOB           .KG/M3                     : Density         Bulk Density
~A  DEPTH     BS       CALI      CALS   DepOffCP~    DRHO       DT        GR       ILD       ILM      NPHISS      PE       RHOB   
# ...
1408.4000  311.0000  326.4530  315.2670 1408.4000   31.2980  345.8550   85.3530    0.6950    0.8390    0.4010    5.1100 2432.8640 
1408.5000  311.0000  326.1780  315.3490 1408.5000   19.4410  339.2320   87.6390    0.7910    0.9410    0.4090    5.1080 2460.9390 
1408.6000  311.0000  325.9040  315.4310 1408.6000    7.7840  334.1690   87.7840    0.9250    1.0620    0.4050    4.9200 2474.4519 
1408.7000  311.0000  325.6250  315.5130 1408.7000    1.1560  329.1060   86.6640    1.1030    1.1670    0.3980    4.6400 2469.6941 
1408.8000  311.0000  325.6310  315.5950 1408.8000    0.9360  324.0410   85.5260    1.2830    1.2790    0.3870    4.3600 2448.8569 
1408.9000  311.0000  326.4620  315.6780 1408.9000    8.7380  318.9800   84.3990    1.4820    1.4020    0.3750    4.0950 2428.0620 
1409.0000  311.0000  327.2890  315.7610 1409.0000   38.2840  314.5680   83.7680    1.6540    1.5420    0.3660    3.8590 2407.9399 
1409.1000  311.0000  328.1090  315.6650 1409.1000   70.7210  311.7820   83.7560    1.8360    1.6780    0.3570    3.8810 2429.0259 
1409.2000  311.0000  328.8560  315.4940 1409.2000  108.5140  315.6590   83.7540    1.9860    1.8010    0.3530    4.0400 2459.2480 
1409.3000  311.0000  327.2730  315.3250 1409.3000  119.2010  316.9670   83.2080    2.1290    1.8920    0.3490    4.2780 2493.8569 
1409.4000  311.0000  325.6810  315.1520 1409.4000  111.8080  314.3150   81.9240    2.1670    1.9880    0.3370    4.6080 2528.2849 
1409.5000  311.0000  324.0850  315.3020 1409.5000   82.8630  308.8460   79.4220    2.2250    2.0840    0.3190    4.5780 2543.5801 
1409.6000  311.0000  322.4840  316.2010 1409.6000   50.7100  301.8810   76.7940    2.2230    2.1420    0.3000    4.5010 2540.8101 
1409.7000  311.0000  321.4860  317.0990 1409.7000   33.3850  294.4330   74.1930    2.2200    2.1840    0.2810    4.1810 2524.6760 
1409.8000  311.0000  321.6410  317.9940 1409.8000   31.6990  293.4170   72.9690    2.2160    2.1510    0.2680    3.8590 2507.5449 
1409.9000  311.0000  321.8030  318.8960 1409.9000   35.8130  296.8930   73.5450    2.2160    2.0900    0.2620    3.5540 2487.1951 
1410.0000  311.0000  321.9760  319.5320 1410.0000   41.9510  303.9400   76.6920    2.1260    2.0210    0.2680    3.3230 2466.8010 
1410.1000  311.0000  322.8730  319.5310 1410.1000   49.0050  310.8240   80.0710    2.0530    1.9550    0.2860    3.2320 2449.8000 
1410.2000  311.0000  323.6650  319.5300 1410.2000   47.2210  316.7880   82.9900    1.9820    1.8900    0.3130    3.2050 2441.8821 
1410.3000  311.0000  324.4630  319.5320 1410.3000   40.9820  322.1970   85.0300    1.9040    1.8430    0.3570    3.4200 2435.2639 
1410.4000  311.0000  325.2540  319.6520 1410.4000   31.6430  325.4740   85.3210    1.8140    1.8100    0.4500    4.0290 2431.4231 
1410.5000  311.0000  325.6680  319.8960 1410.5000   22.2440  328.7240   84.1020    1.7280    1.7710    0.4500    4.7050 2431.6299 
1410.6000  311.0000  325.6730  320.1410 1410.6000   17.1730  332.3110   80.6960    1.6460    1.7120    0.4520    6.5310 2439.6541 
1410.7000  311.0000  325.6520  320.3860 1410.7000   13.6430  335.9000   76.4320    1.5680    1.6560    0.4620    8.5290 2463.1411 
1410.8000  311.0000  325.0530  320.6300 1410.8000   13.2390  339.5950   72.1780    1.4940    1.6100    0.4720    9.9000 2489.6721 
1410.9000  311.0000  324.4720  320.8740 1410.9000   21.0780  343.8830   68.3560    1.4230    1.5790    0.4760    9.7480 2529.1101 
1411.0000  311.0000  323.8890  321.1210 1411.0000   38.5930  348.1710   66.6890    1.3760    1.5480    0.4800    9.0590 2522.4719 
1411.1000  311.0000  323.3100  320.9780 1411.1000   56.2270  352.4590   68.6670    1.3330    1.4860    0.4870    7.8580 2503.4250 
1411.2000  311.0000  322.7340  320.1320 1411.2000   73.8880  356.5150   72.2030    1.2920    1.4170    0.4940    6.7030 2451.4741 
1411.3000  311.0000  324.2570  319.2820 1411.3000   90.3780  365.3780   75.8270    1.2540    1.3560    0.5010    6.0350 2387.8669 
1411.4000  311.0000  328.5770  318.4320 1411.4000  100.3540  372.0000   79.8410    1.2410    1.3250    0.5050    5.3820 2321.6069 
1411.5000  311.0000  334.9240  317.5860 1411.5000  102.4710  377.9230   80.5680    1.2280    1.2960    0.5050    5.0810 2295.4839 
1411.6000  311.0000  341.2990  317.3570 1411.6000  103.1130  383.0100   80.0170    1.2160    1.2760    0.4990    4.8070 2280.7019 
1411.7000  311.0000  347.9130  317.4780 1411.7000   94.7390  387.8680   78.0030    1.2030    1.2700    0.4900    4.5530 2285.6440 
1411.8000  311.0000  350.9820  317.6850 1411.8000   82.9130  389.5420   77.2830    1.1910    1.2640    0.4780    4.3730 2295.8889 
1411.9000  311.0000  347.6110  317.9760 1411.9000   67.3090  387.3800   78.4660    1.1790    1.2580    0.4630    4.1940 2310.2949 
1412.0000  311.0000  342.7040  318.2690 1412.0000   51.7110  383.4420   83.1120    1.1600    1.2540    0.4500    4.0540 2324.4890 
1412.1000  311.0000  337.8320  318.5610 1412.1000   36.3350  379.4890   89.8920    1.1670    1.2720    0.4380    3.9330 2338.7041 
1412.2000  311.0000  333.9370  318.8530 1412.2000   28.8250  375.5470   96.6920    1.1820    1.2840    0.4290    3.8130 2352.9290 
1412.3000  311.0000  331.5350  319.1460 1412.3000   23.7530  371.5110  103.2130    1.1970    1.2970    0.4300    3.7410 2367.1150 
1412.4000  311.0000  330.4320  319.4380 1412.4000   20.0240  372.7110  105.9550    1.2120    1.3100    0.4500    3.7420 2373.5481 
1412.5000  311.0000  329.3310  319.5960 1412.5000   18.8120  376.5070  107.8370    1.2310    1.3230    0.4500    3.8030 2374.3740 
1412.6000  311.0000  328.3880  319.6900 1412.6000   20.5440  380.0910  106.7910    1.2510    1.3360    0.4520    3.8640 2375.2451 
1412.7000  311.0000  328.3120  319.7850 1412.7000   25.9650  383.6800  105.8010    1.2720    1.3440    0.4510    3.9120 2379.0850 
1412.8000  311.0000  328.2190  319.8800 1412.8000   30.1220  386.3180  104.8390    1.2750    1.3440    0.4490    3.9430 2384.1340 
1412.9000  311.0000  328.1280  319.9750 1412.9000   29.3360  388.0560  103.7040    1.2780    1.3440    0.4390    3.8770 2389.3000 
1413.0000  311.0000  328.0360  320.0700 1413.0000   28.0050  383.9720  102.2520    1.2820    1.3460    0.4310    3.7800 2386.7920 
1413.1000  311.0000  327.9440  320.1650 1413.1000   20.4430  380.5510  100.6330    1.2850    1.3510    0.4230    3.6840 2382.9819 
1413.2000  311.0000  327.8520  320.2490 1413.2000   12.9020  377.1420   99.0180    1.2880    1.3560    0.4210    3.5870 2379.0310 
1413.3000  311.0000  327.7610  321.2710 1413.3000    7.3120  376.4320   97.4020    1.3000    1.3610    0.4290    3.5330 2383.2000 
1413.4000  311.0000  327.6690  322.5380 1413.4000    5.0880  377.0630   95.7860    1.3160    1.3660    0.4380    3.5030 2392.0391 
1413.5000  311.0000  327.5780  323.8030 1413.5000    6.2390  378.6170   94.1700    1.3320    1.3800    0.4460    3.5610 2401.9409 
1413.6000  311.0000  327.4840  325.0860 1413.6000    7.3890  377.6890   92.5540    1.3490    1.4030    0.4490    3.6430 2411.8169 
1413.7000  311.0000  327.6530  324.3920 1413.7000    8.5830  373.8900   90.9380    1.3650    1.4270    0.4490    3.7670 2421.6169 
1413.8000  311.0000  328.4820  323.0870 1413.8000    7.2290  364.9430   89.4080    1.3820    1.4500    0.4490    3.8910 2420.8931 
1413.9000  311.0000  329.3030  321.7730 1413.9000    5.4080  356.3000   88.8310    1.3990    1.4740    0.4440    3.9910 2416.0510 
1414.0000  311.0000  329.6390  320.6600 1414.0000    3.5460  350.9940   88.2530    1.4260    1.4990    0.4270    4.0330 2410.7971 
1414.1000  311.0000  329.6010  319.9800 1414.1000    3.7440  345.5330   87.8190    1.4240    1.5280    0.4110    4.0470 2405.5100 
1414.2000  311.0000  329.5600  319.8370 1414.2000    4.3870  347.4310   87.9710    1.4180    1.5150    0.3940    4.0690 2392.6350 
1414.3000  311.0000  329.5190  320.6780 1414.3000    5.0030  353.1320   88.0070    1.4120    1.4990    0.3640    4.1420 2364.2900 
1414.4000  311.0000  329.4760  322.1500 1414.4000    2.3590  367.9650   87.0190    1.4070    1.4840    0.3600    4.2340 2305.1189 
1414.5000  311.0000  329.4620  323.6290 1414.5000   -2.2210  382.6690   86.0300    1.4010    1.4690    0.3570    4.3180 2239.5210 
