~VERSION INFORMATION
 VERS.                 2.0:   CWLS LOG ASCII STANDARD - VERSION 2.0
 WRAP.                  NO:   SINGLE LINE PER DEPTH STEP
 CREA.                 21/06/2013 8:55:46 AM
#CREATED USING IP VERSION 4.1.2012.198 BY NEIL WATSON ON 21/06/2013 8:55:46 AM
~WELL INFORMATION
#MNEM.UNIT       DATA                          DESCRIPTION MNEMONIC
#---------      ---------------------------   --------------------------
 STRT    .M         900.0000                  : START DEPTH
 STOP    .M         3455.0000                 : STOP DEPTH
 STEP    .M         0.1000                    : STEP VALUE
 NULL    .      -999.0000                     : NULL VALUE
 SRVC    .      SCH                           : Service Company/Logging company
 DATE    .      21/06/2013                    : LAS file Creation Date
 WELL    .      SHELL PCI ET AL PANUKE B-90   : Well Name
 COMP    .      SHELL CANADA LIMITED          : Company
 FLD     .      SCOTIAN SHELF                 : Field
 STATE   .      ONTARIO                       : State
 COUNT   .      CANADA                        : Country
 LOC     .      43� 49' 11 _ 9" N|60� 42' 34 _: Location
 LATI    .      0                             : Latitude/Northing
 LONG    .      0                             : Longitude/Easting
 PDAT    .      RT                            : Permanent Datum
 EPDAT   .      0.0000                        : Elevation of Permanent Datum
 KB      .      23.3000                       : KB Elevation
 DF      .      22.7000                       : DF Elevation
 GL      .      47.0000                       : GL Elevation
 RWS     .      -999                          : Def_Rw
 WST     .      -999                          : Def_Rwt
 ERT     .      0.0000                        : RT Elevation
 CNTY    .      NOVA SCOTIA                   : County
 SRVC    .      SCH                           : Contractor
~CURVE INFORMATION
#MNEM                  UNIT       API CODE   Curve Type        Comments
#----------      --------------- ----------  --------------- -----------
 DEPTH          .M                         : Depth           
 BS             .mm                        :                 
 CALI           .MM                        : Caliper         Caliper
 CALS           .MM                        : Caliper         Caliper
 DepOffCPORtoRH .M                         : Depth           
 DRHO           .KG/M3                     : Drho            Delta Rho
 DT             .US/M                      : Sonic           Delta-T
 GR             .GAPI                      : GammaRay        Gamma Ray
 ILD            .OHMM                      : DeepRes         Deep Induction Standard Processed Resistivity
 ILM            .OHMM                      : MedRes          Medium Induction Standard Processed Resistivity
 NPHISS         .V/V                       : Neutron         NPHISS
 PE             .B/E                       : PEF             
 RHOB           .KG/M3                     : Density         Bulk Density
~A  DEPTH     BS       CALI      CALS   DepOffCP~    DRHO       DT        GR       ILD       ILM      NPHISS      PE       RHOB   
# ...
3442.0000  311.0000 -999.0000  306.9310 3442.0000 -999.0000  166.4210 -999.0000  125.4820  134.2450 -999.0000 -999.0000 -999.0000 
3442.1000  311.0000 -999.0000  307.5790 3442.1001 -999.0000  167.4090 -999.0000  119.9310  127.3050 -999.0000 -999.0000 -999.0000 
3442.2000  311.0000 -999.0000  308.2350 3442.2000 -999.0000  167.2340 -999.0000  115.1840  117.4490 -999.0000 -999.0000 -999.0000 
3442.3000  311.0000 -999.0000  308.9250 3442.3000 -999.0000  166.7830 -999.0000  116.4170  109.4040 -999.0000 -999.0000 -999.0000 
3442.4000  311.0000 -999.0000  307.9740 3442.3999 -999.0000  166.3310 -999.0000  118.2880  106.7200 -999.0000 -999.0000 -999.0000 
3442.5000  311.0000 -999.0000  306.5850 3442.5000 -999.0000  165.8780 -999.0000  116.3760  104.9900 -999.0000 -999.0000 -999.0000 
3442.6000  311.0000 -999.0000  305.2110 3442.6001 -999.0000  165.4210 -999.0000  112.6560  108.9830 -999.0000 -999.0000 -999.0000 
3442.7000  311.0000 -999.0000  303.8650 3442.7000 -999.0000  165.6860 -999.0000  106.5050  115.4290 -999.0000 -999.0000 -999.0000 
3442.8000  311.0000 -999.0000  305.4120 3442.8000 -999.0000  166.6900 -999.0000   94.8480  118.6560 -999.0000 -999.0000 -999.0000 
3442.9000  311.0000 -999.0000  307.0520 3442.8999 -999.0000  169.4000 -999.0000   80.7540  119.9270 -999.0000 -999.0000 -999.0000 
3443.0000  311.0000 -999.0000  308.6940 3443.0000 -999.0000  173.8830 -999.0000   66.0680  103.6590 -999.0000 -999.0000 -999.0000 
3443.1000  311.0000 -999.0000  310.2560 3443.1001 -999.0000  178.6710 -999.0000   52.8320   89.0990 -999.0000 -999.0000 -999.0000 
3443.2000  311.0000 -999.0000  310.0380 3443.2000 -999.0000  183.4670 -999.0000   42.7280   76.6260 -999.0000 -999.0000 -999.0000 
3443.3000  311.0000 -999.0000  309.8010 3443.3000 -999.0000  188.2620 -999.0000   35.8940   60.6780 -999.0000 -999.0000 -999.0000 
3443.4000  311.0000 -999.0000  309.5600 3443.3999 -999.0000  191.5050 -999.0000   30.4070   46.7200 -999.0000 -999.0000 -999.0000 
3443.5000  311.0000 -999.0000  309.3200 3443.5000 -999.0000  192.0080 -999.0000   26.8610   36.1010 -999.0000 -999.0000 -999.0000 
3443.6000  311.0000 -999.0000  309.0790 3443.6001 -999.0000  189.5510 -999.0000   25.0710   27.5090 -999.0000 -999.0000 -999.0000 
3443.7000  311.0000 -999.0000  308.8350 3443.7000 -999.0000  187.1690 -999.0000   24.4390   23.4260 -999.0000 -999.0000 -999.0000 
3443.8000  311.0000 -999.0000  308.7030 3443.8000 -999.0000  185.3030 -999.0000   24.0030   19.4180 -999.0000 -999.0000 -999.0000 
3443.9000  311.0000 -999.0000  308.5940 3443.8999 -999.0000  185.2030 -999.0000   23.8140   19.7140 -999.0000 -999.0000 -999.0000 
3444.0000  311.0000 -999.0000  308.4840 3444.0000 -999.0000  185.4850 -999.0000   23.6280   20.3240 -999.0000 -999.0000 -999.0000 
3444.1000  311.0000 -999.0000  308.3740 3444.1001 -999.0000  185.7670 -999.0000   23.4290   22.2720 -999.0000 -999.0000 -999.0000 
3444.2000  311.0000 -999.0000  308.2640 3444.2000 -999.0000  186.0490 -999.0000   23.8130   24.4270 -999.0000 -999.0000 -999.0000 
3444.3000  311.0000 -999.0000  308.1540 3444.3000 -999.0000  185.7430 -999.0000   24.3300   26.0520 -999.0000 -999.0000 -999.0000 
3444.4000  311.0000 -999.0000  308.0590 3444.3999 -999.0000  184.9760 -999.0000   25.7240   27.1390 -999.0000 -999.0000 -999.0000 
3444.5000  311.0000 -999.0000  307.1810 3444.5000 -999.0000  184.2080 -999.0000   27.1970   28.9400 -999.0000 -999.0000 -999.0000 
3444.6000  311.0000 -999.0000  306.1210 3444.6001 -999.0000  182.6160 -999.0000   28.7550   30.7860 -999.0000 -999.0000 -999.0000 
3444.7000  311.0000 -999.0000  305.0630 3444.7000 -999.0000  180.6420 -999.0000   30.5440   35.2480 -999.0000 -999.0000 -999.0000 
3444.8000  311.0000 -999.0000  304.0180 3444.8000 -999.0000  178.6670 -999.0000   33.3480   42.3460 -999.0000 -999.0000 -999.0000 
3444.9000  311.0000 -999.0000  303.9510 3444.8999 -999.0000  176.6930 -999.0000   36.8390   50.8750 -999.0000 -999.0000 -999.0000 
3445.0000  311.0000 -999.0000  304.6400 3445.0000 -999.0000  175.2010 -999.0000   41.2240   61.0940 -999.0000 -999.0000 -999.0000 
3445.1000  311.0000 -999.0000  305.3390 3445.1001 -999.0000  174.3230 -999.0000   46.1360   68.2610 -999.0000 -999.0000 -999.0000 
3445.2000  311.0000 -999.0000  306.0370 3445.2000 -999.0000  174.2220 -999.0000   51.6290   70.9120 -999.0000 -999.0000 -999.0000 
3445.3000  311.0000 -999.0000  306.7370 3445.3000 -999.0000  174.5980 -999.0000   56.1390   74.7720 -999.0000 -999.0000 -999.0000 
3445.4000  311.0000 -999.0000  307.4260 3445.3999 -999.0000  174.9740 -999.0000   59.4480   74.6910 -999.0000 -999.0000 -999.0000 
3445.5000  311.0000 -999.0000  307.4040 3445.5000 -999.0000  175.0370 -999.0000   59.6480   74.5620 -999.0000 -999.0000 -999.0000 
3445.6000  311.0000 -999.0000  306.6400 3445.6001 -999.0000  174.6900 -999.0000   59.8480   74.4350 -999.0000 -999.0000 -999.0000 
3445.7000  311.0000 -999.0000  305.8660 3445.7000 -999.0000  174.3440 -999.0000   60.9570   76.2910 -999.0000 -999.0000 -999.0000 
3445.8000  311.0000 -999.0000  305.0930 3445.8000 -999.0000  174.4250 -999.0000   64.7470   78.1550 -999.0000 -999.0000 -999.0000 
3445.9000  311.0000 -999.0000  304.3170 3445.8999 -999.0000  174.8520 -999.0000   72.6910   80.0980 -999.0000 -999.0000 -999.0000 
3446.0000  311.0000 -999.0000  303.8680 3446.0000 -999.0000  175.2800 -999.0000   82.1400   80.4340 -999.0000 -999.0000 -999.0000 
3446.1000  311.0000 -999.0000  304.0880 3446.1001 -999.0000  175.7080 -999.0000   92.7620   80.7770 -999.0000 -999.0000 -999.0000 
3446.2000  311.0000 -999.0000  304.3100 3446.2000 -999.0000  176.1370 -999.0000   99.6450   81.9630 -999.0000 -999.0000 -999.0000 
3446.3000  311.0000 -999.0000  304.5310 3446.3000 -999.0000  176.5680 -999.0000  104.4970   83.8560 -999.0000 -999.0000 -999.0000 
3446.4000  311.0000 -999.0000  304.7520 3446.3999 -999.0000  176.5800 -999.0000  102.0210   88.3550 -999.0000 -999.0000 -999.0000 
3446.5000  311.0000 -999.0000  304.9720 3446.5000 -999.0000  176.1560 -999.0000  100.1900   92.8500 -999.0000 -999.0000 -999.0000 
3446.6000  311.0000 -999.0000  305.1930 3446.6001 -999.0000  175.7320 -999.0000   98.9130   97.3240 -999.0000 -999.0000 -999.0000 
3446.7000  311.0000 -999.0000  305.4140 3446.7000 -999.0000  175.3080 -999.0000  100.3240  102.0130 -999.0000 -999.0000 -999.0000 
3446.8000  311.0000 -999.0000  305.6350 3446.8000 -999.0000  174.8840 -999.0000  103.4430  106.9280 -999.0000 -999.0000 -999.0000 
3446.9000  311.0000 -999.0000  305.8590 3446.8999 -999.0000  174.4600 -999.0000  107.9590  112.8940 -999.0000 -999.0000 -999.0000 
3447.0000  311.0000 -999.0000  305.9000 3447.0000 -999.0000  174.0360 -999.0000  112.6720  120.5500 -999.0000 -999.0000 -999.0000 
3447.1000  311.0000 -999.0000  304.8210 3447.1001 -999.0000  173.6120 -999.0000  117.7470  133.5070 -999.0000 -999.0000 -999.0000 
3447.2000  311.0000 -999.0000  303.7390 3447.2000 -999.0000  173.1880 -999.0000  121.5890  147.8570 -999.0000 -999.0000 -999.0000 
3447.3000  311.0000 -999.0000  301.9380 3447.3000 -999.0000  173.2460 -999.0000  125.8120  163.7490 -999.0000 -999.0000 -999.0000 
3447.4000  311.0000 -999.0000  299.5970 3447.3999 -999.0000  173.7250 -999.0000  130.2490  177.1090 -999.0000 -999.0000 -999.0000 
3447.5000  311.0000 -999.0000  296.7610 3447.5000 -999.0000  174.2030 -999.0000  138.0420  166.8880 -999.0000 -999.0000 -999.0000 
3447.6000  311.0000 -999.0000  290.9360 3447.6001 -999.0000  174.6820 -999.0000  147.4210  155.8330 -999.0000 -999.0000 -999.0000 
3447.7000  311.0000 -999.0000  284.9860 3447.7000 -999.0000  175.1610 -999.0000  149.4070  144.7410 -999.0000 -999.0000 -999.0000 
3447.8000  311.0000 -999.0000  278.2950 3447.8000 -999.0000  175.5300 -999.0000  152.2310  152.6560 -999.0000 -999.0000 -999.0000 
3447.9000  311.0000 -999.0000  271.5780 3447.8999 -999.0000  175.8010 -999.0000  144.4170  160.6880 -999.0000 -999.0000 -999.0000 
3448.0000  311.0000 -999.0000  267.2930 3448.0000 -999.0000  176.0720 -999.0000  133.4890  169.1690 -999.0000 -999.0000 -999.0000 
3448.1000  311.0000 -999.0000  265.4160 3448.1001 -999.0000  176.3430 -999.0000  123.3880  158.1020 -999.0000 -999.0000 -999.0000 
