~VERSION INFORMATION
 VERS.                 2.0:   CWLS LOG ASCII STANDARD - VERSION 2.0
 WRAP.                  NO:   SINGLE LINE PER DEPTH STEP
 CREA.                 21/06/2013 8:55:46 AM
#CREATED USING IP VERSION 4.1.2012.198 BY NEIL WATSON ON 21/06/2013 8:55:46 AM
~WELL INFORMATION
#MNEM.UNIT       DATA                          DESCRIPTION MNEMONIC
#---------      ---------------------------   --------------------------
 STRT    .M         900.0000                  : START DEPTH
 STOP    .M         3455.0000                 : STOP DEPTH
 STEP    .M         0.1000                    : STEP VALUE
 NULL    .      -999.0000                     : NULL VALUE
 SRVC    .      SCH                           : Service Company/Logging company
 DATE    .      21/06/2013                    : LAS file Creation Date
 WELL    .      SHELL PCI ET AL PANUKE B-90   : Well Name
 COMP    .      SHELL CANADA LIMITED          : Company
 FLD     .      SCOTIAN SHELF                 : Field
 STATE   .      ONTARIO                       : State
 COUNT   .      CANADA                        : Country
 LOC     .      43� 49' 11 _ 9" N|60� 42' 34 _: Location
 LATI    .      0                             : Latitude/Northing
 LONG    .      0                             : Longitude/Easting
 PDAT    .      RT                            : Permanent Datum
 EPDAT   .      0.0000                        : Elevation of Permanent Datum
 KB      .      23.3000                       : KB Elevation
 DF      .      22.7000                       : DF Elevation
 GL      .      47.0000                       : GL Elevation
 RWS     .      -999                          : Def_Rw
 WST     .      -999                          : Def_Rwt
 ERT     .      0.0000                        : RT Elevation
 CNTY    .      NOVA SCOTIA                   : County
 SRVC    .      SCH                           : Contractor
~CURVE INFORMATION
#MNEM                  UNIT       API CODE   Curve Type        Comments
#----------      --------------- ----------  --------------- -----------
 DEPTH          .M                         : Depth           
 BS             .mm                        :                 
 CALI           .MM                        : Caliper         Caliper
 CALS           .MM                        : Caliper         Caliper
 DepOffCPORtoRH .M                         : Depth           
 DRHO           .KG/M3                     : Drho            Delta Rho
 DT             .US/M                      : Sonic           Delta-T
 GR             .GAPI                      : GammaRay        Gamma Ray
 ILD            .OHMM                      : DeepRes         Deep Induction Standard Processed Resistivity
 ILM            .OHMM                      : MedRes          Medium Induction Standard Processed Resistivity
 NPHISS         .V/V                       : Neutron         NPHISS
 PE             .B/E                       : PEF             
 RHOB           .KG/M3                     : Density         Bulk Density
~A  DEPTH     BS       CALI      CALS   DepOffCP~    DRHO       DT        GR       ILD       ILM      NPHISS      PE       RHOB   
# ...
3274.6000  311.0000  313.9870  315.1830 3274.6001  -13.4550  172.3910   20.0860   38.1030   51.0160    0.0510    5.5460 2686.5259 
3274.7000  311.0000  313.6740  315.1750 3274.7000  -12.8540  173.0130   19.9540   43.6500   59.0070    0.0470    5.6260 2689.0950 
3274.8000  311.0000  313.3790  315.1660 3274.8000  -12.2600  173.6250   20.8570   45.3540   63.7500    0.0440    5.6550 2691.6860 
3274.9000  311.0000  313.3760  315.1570 3274.8999  -11.2750  174.2360   22.1870   42.7280   65.1600    0.0430    5.5800 2692.2959 
3275.0000  311.0000  313.3750  315.1490 3275.0000   -9.3100  174.8480   23.7930   38.7140   59.2320    0.0430    5.3890 2689.8679 
3275.1000  311.0000  313.3750  315.1400 3275.1001   -7.3520  178.3200   25.4110   33.8580   51.5040    0.0450    5.0860 2685.3369 
3275.2000  311.0000  313.3730  315.1320 3275.2000   -5.3950  182.6340   28.0470   29.6110   44.1210    0.0500    4.7720 2680.7859 
3275.3000  311.0000  313.4530  315.1230 3275.3000   -3.4370  186.9480   31.0150   26.0360   36.1820    0.0550    4.2350 2672.2949 
3275.4000  311.0000  313.9070  315.1150 3275.3999   -1.4800  191.2620   35.5620   24.0490   29.6710    0.0610    3.8190 2659.9661 
3275.5000  311.0000  314.3500  315.1060 3275.5000    0.4880  195.5760   40.1890   22.2780   24.2950    0.0660    3.3930 2643.9951 
3275.6000  311.0000  314.7970  315.0970 3275.6001    1.9390  199.8900   43.7020   20.7270   20.1110    0.0690    3.1240 2628.0459 
3275.7000  311.0000  315.1260  315.0890 3275.7000    0.5030  201.5900   46.1760   19.7360   18.8750    0.0670    2.9820 2612.0740 
3275.8000  311.0000  315.1260  315.0800 3275.8000   -0.8880  202.2140   44.6500   18.7920   18.0860    0.0630    2.9480 2596.0930 
3275.9000  311.0000  315.1250  315.0720 3275.8999   -2.2450  202.8380   42.4080   18.0870   17.3900    0.0560    2.9120 2583.5049 
3276.0000  311.0000  314.7930  315.0630 3276.0000   -0.8390  202.0850   40.1800   17.4790   16.7450    0.0520    2.8770 2579.3320 
3276.1000  311.0000  314.3020  315.0540 3276.1001    0.4940  201.0450   37.9630   16.8910   16.3070    0.0500    2.8810 2574.0740 
3276.2000  311.0000  313.8130  315.0460 3276.2000    1.9050  199.9500   37.0140   16.4580   16.7860    0.0470    2.9240 2570.9819 
3276.3000  311.0000  313.3280  315.0370 3276.3000   -0.0830  196.9750   37.0600   16.7680   17.1610    0.0440    3.0840 2568.3860 
3276.4000  311.0000  313.1610  315.0350 3276.3999   -2.8770  193.8350   37.1290   17.2020   18.1230    0.0400    3.3640 2570.6289 
3276.5000  311.0000  313.2230  315.0350 3276.5000   -5.6490  190.6930   36.4150   17.9040   20.0290    0.0360    3.6900 2579.2900 
3276.6000  311.0000  313.2830  315.0350 3276.6001   -8.4990  187.5500   35.5570   19.0420   22.1360    0.0320    4.0210 2594.5000 
3276.7000  311.0000  313.3410  315.0350 3276.7000   -7.0600  184.4100   34.7080   20.5530   24.4680    0.0280    4.3360 2618.3140 
3276.8000  311.0000  313.1430  315.0350 3276.8000   -4.9440  181.3780   34.2800   22.1810   27.0710    0.0250    4.5110 2642.2590 
3276.9000  311.0000  312.6880  315.0350 3276.8999   -2.8410  180.3790   34.2800   23.9370   29.9850    0.0250    4.5900 2661.7900 
3277.0000  311.0000  312.2130  315.0350 3277.0000   -0.7380  179.4130   34.0430   25.8310   32.6170    0.0250    4.6620 2679.0559 
3277.1000  311.0000  312.3770  315.0350 3277.1001    1.3650  179.2970   32.8410   27.8760   34.8270    0.0260    4.7580 2688.4990 
3277.2000  311.0000  312.7100  315.0350 3277.2000    3.4650  179.4490   31.6760   30.0780   37.1890    0.0270    4.8590 2694.7180 
3277.3000  311.0000  313.0400  315.0350 3277.3000    5.5840  179.6010   30.5120   32.2900   39.7040    0.0300    5.0440 2697.3411 
3277.4000  311.0000  313.3700  315.0350 3277.3999    6.7240  179.7530   29.3600   34.2440   40.0730    0.0330    5.1240 2698.1670 
3277.5000  311.0000  313.7010  315.0350 3277.5000    5.6160  178.9720   29.5040   36.3170   40.4430    0.0360    5.1460 2697.8220 
3277.6000  311.0000  314.0320  315.0350 3277.6001    5.7530  177.9830   29.6840   38.0390   40.8080    0.0360    5.1120 2697.0979 
3277.7000  311.0000  313.8580  315.0350 3277.7000    5.8750  176.0680   29.8610   39.4960   41.9560    0.0350    5.0590 2696.3840 
3277.8000  311.0000  313.4790  315.0350 3277.8000    5.9960  174.1520   28.4290   41.0000   43.9090    0.0310    5.0060 2700.8020 
3277.9000  311.0000  313.1020  315.0350 3277.8999    6.1900  172.2360   26.1280   42.1890   46.7520    0.0260    4.9850 2706.9089 
3278.0000  311.0000  312.7250  315.0350 3278.0000    6.9220  170.3200   23.8310   42.8090   50.1670    0.0220    5.1320 2716.8091 
3278.1000  311.0000  312.3490  315.0350 3278.1001    7.6510  168.3970   21.5390   43.4380   53.8320    0.0210    5.2430 2726.7451 
3278.2000  311.0000  312.2200  315.0350 3278.2000    8.3800  168.9130   19.7110   44.0760   57.7650    0.0200    5.3530 2736.0371 
3278.3000  311.0000  312.4410  315.0350 3278.3000    9.0740  169.4300   19.2900   44.7330   61.9870    0.0200    5.4640 2739.2681 
3278.4000  311.0000  312.6670  315.0350 3278.3999    8.8510  169.9480   19.5880   47.1130   65.4480    0.0210    5.5130 2736.2400 
3278.5000  311.0000  312.8740  315.0350 3278.5000    8.6180  170.4660   19.8610   49.6580   68.5820    0.0220    5.4780 2729.3291 
3278.6000  311.0000  312.8750  315.0350 3278.6001    8.3860  170.5950   19.5600   52.3400   71.8660    0.0230    5.4510 2720.0759 
3278.7000  311.0000  312.8750  315.0350 3278.7000    8.1030  170.5940   19.2710   55.1670   75.3080    0.0240    5.4800 2714.5400 
3278.8000  311.0000  312.8750  315.0350 3278.8000   11.1920  170.5940   18.9790   57.0030   79.0030    0.0230    5.5840 2712.4270 
3278.9000  311.0000  312.8620  315.0350 3278.8999   15.1730  170.5940   18.6880   58.7520   80.7460    0.0230    5.7700 2716.7429 
3279.0000  311.0000  312.8340  315.0350 3279.0000   19.1790  170.9930   18.3970   60.5490   82.5790    0.0230    5.9590 2718.2539 
3279.1000  311.0000  312.8060  315.0350 3279.1001   18.5090  171.4870   18.1070   59.4580   84.4460    0.0230    6.0810 2715.5930 
3279.2000  311.0000  312.7770  315.0350 3279.2000   16.5280  171.9770   17.8130   58.3890   86.5930    0.0240    5.9450 2706.0449 
3279.3000  311.0000  312.7490  315.0360 3279.3000   11.3660  172.7090   17.9420   57.3060   82.8480    0.0250    5.7300 2691.3020 
3279.4000  311.0000  312.7200  315.0010 3279.3999    6.2940  174.5690   18.8620   54.4680   78.7790    0.0270    5.5010 2678.2261 
3279.5000  311.0000  312.6920  314.9600 3279.5000    7.9990  176.4290   20.5610   51.6780   74.9090    0.0280    5.2820 2671.9541 
3279.6000  311.0000  312.6630  314.9200 3279.6001   10.5400  178.2880   22.9450   49.0280   68.4860    0.0310    5.1360 2665.7170 
3279.7000  311.0000  312.6350  314.8790 3279.7000   13.8310  180.1480   25.3500   46.4000   61.5190    0.0360    5.0400 2659.6299 
3279.8000  311.0000  312.7170  314.8390 3279.8000   17.1100  181.9770   27.7270   43.7940   55.2620    0.0430    4.9860 2655.4561 
3279.9000  311.0000  312.8590  314.7980 3279.8999   18.7100  183.4000   28.5300   42.4650   48.5130    0.0510    5.0290 2654.6440 
3280.0000  311.0000  313.0000  314.7580 3280.0000   17.8950  184.7990   28.2080   41.5010   45.2560    0.0600    5.0740 2659.9160 
3280.1000  311.0000  313.1420  314.7180 3280.1001   16.9850  184.2600   26.4980   41.0130   43.1840    0.0640    5.2080 2671.0750 
3280.2000  311.0000  313.2820  314.6770 3280.2000   11.9470  182.3790   24.3870   40.5310   41.9510    0.0650    5.3390 2682.0039 
3280.3000  311.0000  313.5290  314.6370 3280.3000    6.7580  180.4970   22.2710   40.0550   43.7850    0.0640    5.4700 2692.6399 
3280.4000  311.0000  313.9680  314.5960 3280.3999    1.5700  178.6150   20.5500   39.5920   46.5130    0.0600    5.6020 2694.1101 
3280.5000  311.0000  314.3720  314.5560 3280.5000   -3.6540  176.7330   19.7680   39.1400   49.4100    0.0570    5.6610 2693.0139 
3280.6000  311.0000  314.3740  314.5150 3280.6001   -6.9190  175.1190   19.1600   38.6930   52.4890    0.0550    5.5760 2689.4851 
3280.7000  311.0000  314.3750  314.4750 3280.7000   -5.3370  174.6970   19.4830   37.7350   53.3530    0.0530    5.4490 2688.9890 
