~VERSION INFORMATION
 VERS.                 2.0:   CWLS LOG ASCII STANDARD - VERSION 2.0
 WRAP.                  NO:   SINGLE LINE PER DEPTH STEP
 CREA.                 21/06/2013 8:55:46 AM
#CREATED USING IP VERSION 4.1.2012.198 BY NEIL WATSON ON 21/06/2013 8:55:46 AM
~WELL INFORMATION
#MNEM.UNIT       DATA                          DESCRIPTION MNEMONIC
#---------      ---------------------------   --------------------------
 STRT    .M         900.0000                  : START DEPTH
 STOP    .M         3455.0000                 : STOP DEPTH
 STEP    .M         0.1000                    : STEP VALUE
 NULL    .      -999.0000                     : NULL VALUE
 SRVC    .      SCH                           : Service Company/Logging company
 DATE    .      21/06/2013                    : LAS file Creation Date
 WELL    .      SHELL PCI ET AL PANUKE B-90   : Well Name
 COMP    .      SHELL CANADA LIMITED          : Company
 FLD     .      SCOTIAN SHELF                 : Field
 STATE   .      ONTARIO                       : State
 COUNT   .      CANADA                        : Country
 LOC     .      43� 49' 11 _ 9" N|60� 42' 34 _: Location
 LATI    .      0                             : Latitude/Northing
 LONG    .      0                             : Longitude/Easting
 PDAT    .      RT                            : Permanent Datum
 EPDAT   .      0.0000                        : Elevation of Permanent Datum
 KB      .      23.3000                       : KB Elevation
 DF      .      22.7000                       : DF Elevation
 GL      .      47.0000                       : GL Elevation
 RWS     .      -999                          : Def_Rw
 WST     .      -999                          : Def_Rwt
 ERT     .      0.0000                        : RT Elevation
 CNTY    .      NOVA SCOTIA                   : County
 SRVC    .      SCH                           : Contractor
~CURVE INFORMATION
#MNEM                  UNIT       API CODE   Curve Type        Comments
#----------      --------------- ----------  --------------- -----------
 DEPTH          .M                         : Depth           
 BS             .mm                        :                 
 CALI           .MM                        : Caliper         Caliper
 CALS           .MM                        : Caliper         Caliper
 DepOffCPORtoRH .M                         : Depth           
 DRHO           .KG/M3                     : Drho            Delta Rho
 DT             .US/M                      : Sonic           Delta-T
 GR             .GAPI                      : GammaRay        Gamma Ray
 ILD            .OHMM                      : DeepRes         Deep Induction Standard Processed Resistivity
 ILM            .OHMM                      : MedRes          Medium Induction Standard Processed Resistivity
 NPHISS         .V/V                       : Neutron         NPHISS
 PE             .B/E                       : PEF             
 RHOB           .KG/M3                     : Density         Bulk Density
~A  DEPTH     BS       CALI      CALS   DepOffCP~    DRHO       DT        GR       ILD       ILM      NPHISS      PE       RHOB   
# ...
1241.0000  311.0000  316.2630  316.4960 1241.0000   -1.5260  379.7940   61.4440    0.7220    0.9030    0.3770    3.0330 2118.4890 
1241.1000  311.0000  315.9690  316.8510 1241.1000    0.9270  385.9510   61.3110    0.6950    0.8460    0.3840    3.0680 2109.9270 
1241.2000  311.0000  316.0250  316.2740 1241.2000    3.3760  389.8210   61.9360    0.6690    0.7780    0.3900    3.1380 2106.0181 
1241.3000  311.0000  316.0700  315.6930 1241.3000    4.7000  390.2500   62.5710    0.6440    0.7480    0.3900    3.2080 2119.8120 
1241.4000  311.0000  316.1150  315.2750 1241.4000    3.5140  388.7140   63.2070    0.6200    0.7220    0.3820    3.2550 2131.5190 
1241.5000  311.0000  316.1600  315.2470 1241.5000    1.3080  385.6460   63.7410    0.5980    0.7140    0.3680    3.2300 2142.6331 
1241.6000  311.0000  315.9220  315.2190 1241.6000   -0.9140  382.2900   63.9290    0.5790    0.7100    0.3530    3.1370 2138.8069 
1241.7000  311.0000  315.7600  315.1900 1241.7000   -3.1380  377.5140   64.1140    0.5660    0.7070    0.3470    3.0440 2126.7910 
1241.8000  311.0000  315.4920  315.1610 1241.8000   -5.3510  372.7400   64.2510    0.5570    0.7030    0.3470    2.9500 2113.0081 
1241.9000  311.0000  315.2290  315.1320 1241.9000   -7.6480  367.8980   62.9590    0.5580    0.6990    0.3540    2.8930 2102.4380 
1242.0000  311.0000  314.9520  315.1030 1242.0000   -7.6030  363.5710   61.6890    0.5590    0.6960    0.3640    2.9170 2097.2200 
1242.1000  311.0000  314.3500  315.0740 1242.1000   -7.4720  359.1780   60.4140    0.5600    0.6920    0.3730    2.9800 2099.9729 
1242.2000  311.0000  313.7050  315.0450 1242.2000   -7.3300  354.7840   59.1390    0.5610    0.6850    0.3820    3.0660 2102.7180 
1242.3000  311.0000  313.0660  315.0160 1242.3000   -7.6400  350.3910   57.9460    0.5620    0.6770    0.3880    3.1720 2105.4861 
1242.4000  311.0000  312.6590  314.9870 1242.4000   -9.0540  348.1580   56.9100    0.5550    0.6700    0.3910    3.2790 2108.1321 
1242.5000  311.0000  312.5490  314.9580 1242.5000  -10.4660  346.8870   55.8720    0.5460    0.6620    0.3890    3.3870 2108.4270 
1242.6000  311.0000  312.4450  314.9290 1242.6000  -11.8700  347.8400   54.8350    0.5380    0.6550    0.3850    3.4140 2108.2671 
1242.7000  311.0000  312.3400  314.9000 1242.7000  -13.1340  349.9490   53.7980    0.5290    0.6480    0.3810    3.4100 2108.1260 
1242.8000  311.0000  312.2350  314.8720 1242.8000  -10.9840  351.9570   52.7570    0.5210    0.6390    0.3770    3.3170 2108.8511 
1242.9000  311.0000  312.1310  314.8430 1242.9000   -8.8570  353.7620   51.7890    0.5130    0.6260    0.3770    3.1950 2110.6799 
1243.0000  311.0000  312.0260  314.8130 1243.0000   -6.7550  355.7040   50.9750    0.5040    0.6130    0.3770    3.0670 2112.3889 
1243.1000  311.0000  311.9220  314.7290 1243.1000   -5.6900  357.5030   50.1640    0.4950    0.6020    0.3770    2.9490 2108.4761 
1243.2000  311.0000  311.8180  314.5720 1243.2000   -4.6430  359.4360   49.3550    0.4870    0.5980    0.3770    2.8620 2099.8999 
1243.3000  311.0000  311.7240  314.6410 1243.3000   -3.9530  361.7050   48.6190    0.4780    0.5940    0.3780    2.8280 2086.5801 
1243.4000  311.0000  311.6310  314.7010 1243.4000   -5.8600  364.1520   49.5160    0.4700    0.5900    0.3820    2.8050 2073.1951 
1243.5000  311.0000  311.9920  314.7620 1243.5000   -7.6590  367.1860   50.9000    0.4620    0.5790    0.3850    2.8250 2059.8740 
1243.6000  311.0000  312.3700  314.8230 1243.6000   -6.5380  370.7390   54.3430    0.4540    0.5650    0.3880    2.8450 2046.1760 
1243.7000  311.0000  312.7470  314.8840 1243.7000   -3.3360  374.2920   57.6920    0.4460    0.5530    0.3840    2.9030 2049.2461 
1243.8000  311.0000  313.1240  314.9450 1243.8000    3.8470  377.6830   61.0400    0.4390    0.5400    0.3720    2.9840 2059.8530 
1243.9000  311.0000  313.4970  315.0060 1243.9000   11.0400  379.8200   64.3980    0.4420    0.5320    0.3600    3.0640 2085.7461 
1244.0000  311.0000  313.8220  315.0230 1244.0000   18.2260  381.4990   66.5700    0.4440    0.5360    0.3570    3.1300 2111.7800 
1244.1000  311.0000  314.1530  314.9940 1244.1000   24.4730  382.5930   68.1770    0.4470    0.5400    0.3600    3.1800 2134.6250 
1244.2000  311.0000  314.4520  314.9640 1244.2000   26.2620  383.6910   68.6130    0.4490    0.5470    0.3710    3.1650 2149.5029 
1244.3000  311.0000  314.3700  314.9340 1244.3000   19.9760  384.7890   67.7420    0.4510    0.5540    0.3830    3.1500 2143.3860 
1244.4000  311.0000  314.2930  314.9040 1244.4000   13.8640  385.8880   66.8100    0.4510    0.5610    0.3930    3.1360 2134.6211 
1244.5000  311.0000  314.2140  314.8740 1244.5000    7.7450  385.7710   65.9850    0.4500    0.5670    0.4030    3.1320 2125.8711 
1244.6000  311.0000  314.1360  314.8440 1244.6000    1.4730  385.8420   66.9260    0.4490    0.5730    0.4120    3.1280 2119.8440 
1244.7000  311.0000  314.0570  314.8140 1244.7000   -1.8900  388.0620   67.8290    0.4540    0.5750    0.4190    3.0980 2114.3210 
1244.8000  311.0000  313.9800  314.7870 1244.8000   -4.6280  390.2810   68.7400    0.4580    0.5760    0.4210    3.0520 2108.6580 
1244.9000  311.0000  314.0640  315.0650 1244.9000   -3.2860  391.7130   69.6370    0.4620    0.5780    0.4190    3.0070 2104.4951 
1245.0000  311.0000  314.2620  315.5300 1245.0000   -1.7970  391.2310   69.9840    0.4670    0.5790    0.4150    2.9610 2103.1140 
1245.1000  311.0000  314.4590  315.6690 1245.1000   -2.2050  390.7460   68.3760    0.4710    0.5810    0.4110    2.9660 2105.3850 
1245.2000  311.0000  314.6620  315.4380 1245.2000   -2.7420  388.8250   66.8250    0.4760    0.5820    0.4080    2.9950 2111.8359 
1245.3000  311.0000  314.6340  315.2030 1245.3000    0.3010  386.6960   65.2790    0.4870    0.5870    0.4060    3.0240 2118.8940 
1245.4000  311.0000  314.5540  314.9670 1245.4000    3.7480  381.7970   63.7650    0.5010    0.5950    0.4030    3.0540 2125.8550 
1245.5000  311.0000  314.4770  314.7320 1245.5000    9.2100  376.4320   65.0600    0.5150    0.6040    0.3880    3.0200 2141.4780 
1245.6000  311.0000  314.7610  314.4960 1245.6000   14.8260  370.7410   66.8720    0.5300    0.6130    0.3730    2.9790 2160.9231 
1245.7000  311.0000  315.2680  314.2830 1245.7000   20.4240  365.1920   68.8480    0.5450    0.6470    0.3570    2.9370 2193.9089 
1245.8000  311.0000  315.7740  314.4090 1245.8000   26.1710  360.7330   70.7970    0.5760    0.6850    0.3470    2.9690 2226.3979 
1245.9000  311.0000  316.2810  314.5370 1245.9000   26.9950  356.2640   72.2970    0.6190    0.7250    0.3400    3.0130 2256.1211 
1246.0000  311.0000  316.6380  314.6650 1246.0000   26.6470  352.1220   73.7150    0.6610    0.7680    0.3360    3.0800 2274.0769 
1246.1000  311.0000  316.9240  314.7940 1246.1000   23.4940  350.7040   75.1300    0.7060    0.8130    0.3340    3.1650 2281.2019 
1246.2000  311.0000  317.2100  314.9220 1246.2000   20.2070  349.3300   76.5480    0.7540    0.8620    0.3340    3.2420 2280.7200 
1246.3000  311.0000  317.4970  315.0510 1246.3000   16.9540  350.6950   77.5330    0.8060    0.9190    0.3380    3.2700 2275.9041 
1246.4000  311.0000  317.7830  315.1790 1246.4000   16.3440  351.8070   77.7140    0.8610    0.9800    0.3470    3.2540 2271.2930 
1246.5000  311.0000  318.0690  315.3070 1246.5000   18.5620  352.1220   77.2560    0.9200    1.0450    0.3570    3.2100 2271.4409 
1246.6000  311.0000  318.3620  315.4360 1246.6000   20.7940  350.9040   76.4980    0.9780    1.0960    0.3660    3.1670 2271.6709 
1246.7000  311.0000  318.7510  315.5640 1246.7000   20.9790  349.5860   75.7430    1.0390    1.1300    0.3680    3.1240 2269.8630 
1246.8000  311.0000  319.2950  315.6930 1246.8000   19.7600  348.2680   74.9870    1.0710    1.1660    0.3690    3.0950 2267.2939 
1246.9000  311.0000  319.8440  315.8310 1246.9000   18.5440  346.7900   74.2420    1.1060    1.2020    0.3670    3.1190 2267.0381 
1247.0000  311.0000  320.3930  315.9970 1247.0000   19.8450  344.9170   74.3010    1.1470    1.2400    0.3650    3.1510 2275.9419 
1247.1000  311.0000  320.9410  316.1610 1247.1000   22.6650  343.0440   75.0700    1.1890    1.2790    0.3620    3.1970 2293.0210 
