~VERSION INFORMATION
 VERS.                 2.0:   CWLS LOG ASCII STANDARD - VERSION 2.0
 WRAP.                  NO:   SINGLE LINE PER DEPTH STEP
 CREA.                 21/06/2013 8:55:46 AM
#CREATED USING IP VERSION 4.1.2012.198 BY NEIL WATSON ON 21/06/2013 8:55:46 AM
~WELL INFORMATION
#MNEM.UNIT       DATA                          DESCRIPTION MNEMONIC
#---------      ---------------------------   --------------------------
 STRT    .M         900.0000                  : START DEPTH
 STOP    .M         3455.0000                 : STOP DEPTH
 STEP    .M         0.1000                    : STEP VALUE
 NULL    .      -999.0000                     : NULL VALUE
 SRVC    .      SCH                           : Service Company/Logging company
 DATE    .      21/06/2013                    : LAS file Creation Date
 WELL    .      SHELL PCI ET AL PANUKE B-90   : Well Name
 COMP    .      SHELL CANADA LIMITED          : Company
 FLD     .      SCOTIAN SHELF                 : Field
 STATE   .      ONTARIO                       : State
 COUNT   .      CANADA                        : Country
 LOC     .      43� 49' 11 _ 9" N|60� 42' 34 _: Location
 LATI    .      0                             : Latitude/Northing
 LONG    .      0                             : Longitude/Easting
 PDAT    .      RT                            : Permanent Datum
 EPDAT   .      0.0000                        : Elevation of Permanent Datum
 KB      .      23.3000                       : KB Elevation
 DF      .      22.7000                       : DF Elevation
 GL      .      47.0000                       : GL Elevation
 RWS     .      -999                          : Def_Rw
 WST     .      -999                          : Def_Rwt
 ERT     .      0.0000                        : RT Elevation
 CNTY    .      NOVA SCOTIA                   : County
 SRVC    .      SCH                           : Contractor
~CURVE INFORMATION
#MNEM                  UNIT       API CODE   Curve Type        Comments
#----------      --------------- ----------  --------------- -----------
 DEPTH          .M                         : Depth           
 BS             .mm                        :                 
 CALI           .MM                        : Caliper         Caliper
 CALS           .MM                        : Caliper         Caliper
 DepOffCPORtoRH .M                         : Depth           
 DRHO           .KG/M3                     : Drho            Delta Rho
 DT             .US/M                      : Sonic           Delta-T
 GR             .GAPI                      : GammaRay        Gamma Ray
 ILD            .OHMM                      : DeepRes         Deep Induction Standard Processed Resistivity
 ILM            .OHMM                      : MedRes          Medium Induction Standard Processed Resistivity
 NPHISS         .V/V                       : Neutron         NPHISS
 PE             .B/E                       : PEF             
 RHOB           .KG/M3                     : Density         Bulk Density
~A  DEPTH     BS       CALI      CALS   DepOffCP~    DRHO       DT        GR       ILD       ILM      NPHISS      PE       RHOB   
# ...
2766.2000  311.0000  310.6160  311.6580 2766.2000   33.6770  206.5410   41.5420    4.5230    6.5460    0.0770    3.5900 2598.6130 
2766.3000  311.0000  310.9160  311.5730 2766.3000   24.4690  213.7600   46.5760    4.7930    6.4800    0.0980    3.5000 2573.3110 
2766.4000  311.0000  311.2130  311.4880 2766.3999   15.4080  220.1650   49.9230    4.8810    6.3510    0.1180    3.4110 2548.3989 
2766.5000  311.0000  311.1720  311.4030 2766.5000    6.2740  224.3650   51.5330    4.7840    6.1010    0.1380    3.3210 2523.3660 
2766.6000  311.0000  310.8750  311.3180 2766.6001    3.3720  227.5090   51.2880    4.5710    5.8070    0.1500    3.2440 2507.3049 
2766.7000  311.0000  311.0960  311.2320 2766.7000    3.3630  227.9220   49.3370    4.1740    5.5270    0.1560    3.1780 2492.5710 
2766.8000  311.0000  310.7420  311.1470 2766.8000    6.7930  228.3090   46.1810    3.7600    5.0720    0.1590    3.1980 2486.5449 
2766.9000  311.0000  310.3150  311.0600 2766.8999   10.2400  230.0710   43.0140    3.3750    4.6120    0.1630    3.2690 2481.6130 
2767.0000  311.0000  309.8900  311.3170 2767.0000   13.5560  233.6510   39.8500    3.0300    4.1950    0.1710    3.3810 2476.6621 
2767.1000  311.0000  309.4630  311.7010 2767.1001   12.0500  237.7030   36.6970    2.7210    3.7680    0.1840    3.4940 2470.8369 
2767.2000  311.0000  309.0410  312.0830 2767.2000   10.3210  241.7770   34.6020    2.4300    3.3380    0.1990    3.5610 2462.5750 
2767.3000  311.0000  308.9280  312.4660 2767.3000    8.5900  246.3430   33.4720    2.3030    2.9570    0.2190    3.5530 2454.2539 
2767.4000  311.0000  309.0160  312.8480 2767.3999    6.8590  244.5070   32.4260    2.1780    2.6200    0.2210    3.4440 2453.6960 
2767.5000  311.0000  309.1040  313.2310 2767.5000    5.1300  241.1560   32.1870    2.1330    2.4420    0.2190    3.4280 2458.9299 
2767.6000  311.0000  309.0230  313.6130 2767.6001    3.3800  233.4820   31.9030    2.1050    2.3650    0.1970    3.4950 2475.5669 
2767.7000  311.0000  308.8850  313.9980 2767.7000    2.7800  225.8080   32.5640    2.0770    2.4370    0.1680    3.7140 2499.9700 
2767.8000  311.0000  308.7470  314.2230 2767.8000    2.3890  218.1530   33.3940    2.0510    2.5410    0.1410    3.9300 2524.0669 
2767.9000  311.0000  308.6030  313.8940 2767.8999    1.9880  213.9520   34.3210    2.0170    2.6520    0.1220    4.0870 2543.2300 
2768.0000  311.0000  308.4280  313.5790 2768.0000    1.5480  212.7290   35.9110    1.9850    2.6890    0.1280    4.1190 2544.9351 
2768.1000  311.0000  308.2520  313.2630 2768.1001   -0.5840  218.9590   37.5110    1.9530    2.7260    0.1410    4.0590 2538.5569 
2768.2000  311.0000  308.0750  312.9480 2768.2000   -2.6560  226.2190   39.1120    1.9220    2.6620    0.1640    3.8470 2516.0969 
2768.3000  311.0000  307.8990  312.6330 2768.3000   -4.7350  233.4920   40.7000    1.8970    2.6020    0.1850    3.6300 2493.7190 
2768.4000  311.0000  307.7220  312.3160 2768.3999   -6.8130  240.7660   41.8660    1.9100    2.5420    0.2000    3.4130 2465.5171 
2768.5000  311.0000  307.5460  312.0320 2768.5000   -8.8910  246.4320   42.4740    1.9200    2.4840    0.2060    3.2080 2438.0330 
2768.6000  311.0000  307.3700  312.0390 2768.6001  -10.9770  249.1470   42.4820    1.9320    2.4270    0.2080    3.0670 2416.7871 
2768.7000  311.0000  307.1930  312.0380 2768.7000  -12.7300  250.4650   42.4340    1.9050    2.3710    0.2060    2.9630 2400.3511 
2768.8000  311.0000  307.0170  312.0380 2768.8000  -11.3250  249.7770   42.3820    1.8730    2.3170    0.2040    2.9530 2389.8960 
2768.9000  311.0000  306.8410  312.0380 2768.8999   -9.9580  248.7110   42.8660    1.8420    2.2690    0.2040    2.9410 2390.0110 
2769.0000  311.0000  306.6600  312.0380 2769.0000   -7.8850  247.6440   43.5310    1.7960    2.2320    0.2040    2.9300 2391.3689 
2769.1000  311.0000  306.5850  312.0380 2769.1001   -5.2030  246.2530   44.1960    1.8000    2.1970    0.2040    2.8940 2395.9741 
2769.2000  311.0000  306.5360  312.0380 2769.2000   -2.5010  244.6920   45.4180    1.8080    2.1890    0.2000    2.8950 2400.9990 
2769.3000  311.0000  306.4860  312.0380 2769.3000   -0.2380  243.1310   47.5970    1.8170    2.1770    0.1960    2.9430 2410.8379 
2769.4000  311.0000  306.4360  312.0380 2769.3999    0.3230  241.5690   50.2750    1.8260    2.2120    0.1910    3.0420 2425.2690 
2769.5000  311.0000  306.3750  312.0350 2769.5000    0.9010  240.6000   52.9510    1.8350    2.2720    0.1890    3.1410 2439.7371 
2769.6000  311.0000  307.0270  311.8630 2769.6001    1.4780  240.0880   55.4330    1.8440    2.3340    0.1890    3.2240 2453.1570 
2769.7000  311.0000  307.8560  311.6800 2769.7000    2.0550  239.5750   57.1310    1.8540    2.3660    0.1930    3.2310 2460.6980 
2769.8000  311.0000  308.6020  311.4970 2769.8000    2.6350  240.8300   56.3530    1.8400    2.3860    0.1990    3.1940 2452.2810 
2769.9000  311.0000  308.1500  311.3140 2769.8999    3.0520  242.6580   55.0600    1.8230    2.3430    0.2050    3.1490 2435.2190 
2770.0000  311.0000  307.7120  311.1320 2770.0000    2.5640  244.7200   51.6440    1.8060    2.3080    0.2070    3.0730 2415.9551 
2770.1000  311.0000  307.2700  311.0580 2770.1001    2.0950  246.7810   48.2170    1.7890    2.2740    0.2090    2.9930 2396.7581 
2770.2000  311.0000  306.8330  311.0930 2770.2000    1.6260  248.8770   44.7880    1.7710    2.2390    0.2100    2.9130 2374.4971 
2770.3000  311.0000  306.7020  311.1290 2770.3000    1.1420  248.9530   41.3780    1.7310    2.2060    0.2070    2.8330 2365.4709 
2770.4000  311.0000  306.8360  311.1660 2770.3999    1.4400  249.0300   39.8100    1.6900    2.1730    0.2040    2.7530 2361.7209 
2770.5000  311.0000  307.2350  311.2020 2770.5000    1.7800  249.6120   39.6800    1.6530    2.1400    0.2000    2.6930 2371.5459 
2770.6000  311.0000  307.7390  311.2380 2770.6001    2.1210  250.9290   43.6690    1.5890    2.1080    0.2050    2.7940 2387.7141 
2770.7000  311.0000  308.2390  311.2740 2770.7000    2.4540  252.2460   49.6550    1.5310    2.0730    0.2160    2.9090 2415.0991 
2770.8000  311.0000  308.7410  311.3100 2770.8000    2.2070  253.5630   55.7660    1.4750    2.0170    0.2310    3.0460 2440.1770 
2770.9000  311.0000  309.2460  311.3470 2770.8999    1.4820  254.8800   60.5100    1.4210    1.9620    0.2470    3.1210 2450.5520 
2771.0000  311.0000  309.1200  311.3830 2771.0000    0.7490  256.1980   62.9580    1.3890    1.9090    0.2590    3.1520 2455.3589 
2771.1000  311.0000  308.7660  311.4190 2771.1001    0.0300  257.5150   59.6760    1.3580    1.8570    0.2550    3.0670 2432.1421 
2771.2000  311.0000  308.4160  311.4550 2771.2000    0.4110  256.8940   52.5580    1.3270    1.8040    0.2400    3.0040 2409.2471 
2771.3000  311.0000  308.0650  311.4920 2771.3000    2.0440  255.5770   45.7360    1.2970    1.7560    0.2270    2.9420 2384.6809 
2771.4000  311.0000  307.7080  311.5270 2771.3999    3.6920  250.4740   38.9050    1.2680    1.7070    0.2130    2.8860 2358.2209 
2771.5000  311.0000  307.9550  311.5020 2771.5000    5.3480  241.7510   36.3930    1.2390    1.6590    0.2080    2.9730 2345.7939 
2771.6000  311.0000  308.4020  311.4370 2771.6001    6.4580  233.0850   35.7090    1.2160    1.6120    0.2080    3.1140 2342.2429 
2771.7000  311.0000  308.8460  311.3720 2771.7000    5.6500  224.7540   37.2420    1.2230    1.5720    0.2110    3.2570 2349.8840 
2771.8000  311.0000  309.2900  311.3070 2771.8000    4.8820  218.7440   39.7860    1.2290    1.5830    0.2130    3.4040 2369.1841 
2771.9000  311.0000  309.7340  311.2410 2771.8999    4.1130  212.7250   42.2790    1.2540    1.5920    0.2150    3.5250 2393.5181 
2772.0000  311.0000  310.1790  311.1760 2772.0000    3.3420  209.3410   43.9520    1.3050    1.6630    0.2120    3.6480 2421.8779 
2772.1000  311.0000  310.6230  311.1110 2772.1001    3.2900  207.5440   44.6700    1.3570    1.7500    0.2050    3.7390 2454.6321 
2772.2000  311.0000  311.0670  311.0460 2772.2000    3.5460  211.5260   44.2010    1.4300    1.8460    0.1980    3.8120 2487.5171 
2772.3000  311.0000  311.5130  310.9810 2772.3000    3.7980  217.7280   43.7670    1.5370    1.9830    0.1920    3.7810 2520.3970 
