~VERSION INFORMATION
 VERS.                 2.0:   CWLS LOG ASCII STANDARD - VERSION 2.0
 WRAP.                  NO:   SINGLE LINE PER DEPTH STEP
 CREA.                 21/06/2013 8:55:46 AM
#CREATED USING IP VERSION 4.1.2012.198 BY NEIL WATSON ON 21/06/2013 8:55:46 AM
~WELL INFORMATION
#MNEM.UNIT       DATA                          DESCRIPTION MNEMONIC
#---------      ---------------------------   --------------------------
 STRT    .M         900.0000                  : START DEPTH
 STOP    .M         3455.0000                 : STOP DEPTH
 STEP    .M         0.1000                    : STEP VALUE
 NULL    .      -999.0000                     : NULL VALUE
 SRVC    .      SCH                           : Service Company/Logging company
 DATE    .      21/06/2013                    : LAS file Creation Date
 WELL    .      SHELL PCI ET AL PANUKE B-90   : Well Name
 COMP    .      SHELL CANADA LIMITED          : Company
 FLD     .      SCOTIAN SHELF                 : Field
 STATE   .      ONTARIO                       : State
 COUNT   .      CANADA                        : Country
 LOC     .      43� 49' 11 _ 9" N|60� 42' 34 _: Location
 LATI    .      0                             : Latitude/Northing
 LONG    .      0                             : Longitude/Easting
 PDAT    .      RT                            : Permanent Datum
 EPDAT   .      0.0000                        : Elevation of Permanent Datum
 KB      .      23.3000                       : KB Elevation
 DF      .      22.7000                       : DF Elevation
 GL      .      47.0000                       : GL Elevation
 RWS     .      -999                          : Def_Rw
 WST     .      -999                          : Def_Rwt
 ERT     .      0.0000                        : RT Elevation
 CNTY    .      NOVA SCOTIA                   : County
 SRVC    .      SCH                           : Contractor
~CURVE INFORMATION
#MNEM                  UNIT       API CODE   Curve Type        Comments
#----------      --------------- ----------  --------------- -----------
 DEPTH          .M                         : Depth           
 BS             .mm                        :                 
 CALI           .MM                        : Caliper         Caliper
 CALS           .MM                        : Caliper         Caliper
 DepOffCPORtoRH .M                         : Depth           
 DRHO           .KG/M3                     : Drho            Delta Rho
 DT             .US/M                      : Sonic           Delta-T
 GR             .GAPI                      : GammaRay        Gamma Ray
 ILD            .OHMM                      : DeepRes         Deep Induction Standard Processed Resistivity
 ILM            .OHMM                      : MedRes          Medium Induction Standard Processed Resistivity
 NPHISS         .V/V                       : Neutron         NPHISS
 PE             .B/E                       : PEF             
 RHOB           .KG/M3                     : Density         Bulk Density
~A  DEPTH     BS       CALI      CALS   DepOffCP~    DRHO       DT        GR       ILD       ILM      NPHISS      PE       RHOB   
# ...
2257.8000  311.0000  316.2840  315.0350 2257.8000  -21.1440  292.3920   95.9310    2.1120    2.2680    0.3320    4.1420 2578.6150 
2257.9000  311.0000  316.2370  315.0150 2257.8999  -23.5040  291.7750   96.3930    2.1220    2.2870    0.3250    4.1100 2581.9141 
2258.0000  311.0000  316.1910  314.9960 2258.0000  -25.0540  292.6220   97.1180    2.1320    2.2850    0.3200    4.0410 2585.1479 
2258.1000  311.0000  316.1440  314.9770 2258.1001  -24.4930  293.4680   98.5550    2.1420    2.2810    0.3180    3.9720 2592.2480 
2258.2000  311.0000  316.0970  314.9580 2258.2000  -21.8590  294.3140  100.8260    2.1520    2.2770    0.3190    3.9030 2600.1411 
2258.3000  311.0000  316.0510  314.9390 2258.3000  -16.6190  295.1600  103.1820    2.1550    2.2730    0.3190    3.8630 2608.0281 
2258.4000  311.0000  316.1010  314.9200 2258.3999  -15.6890  296.0070  105.5520    2.1550    2.2670    0.3180    3.8690 2615.8711 
2258.5000  311.0000  316.2060  314.9020 2258.5000  -14.6870  296.8530  106.7920    2.1550    2.2680    0.3190    3.8840 2618.2180 
2258.6000  311.0000  316.3110  314.8830 2258.6001  -13.6160  296.5060  106.5520    2.1550    2.2720    0.3210    3.8990 2616.6050 
2258.7000  311.0000  316.4150  314.8640 2258.7000  -13.5220  295.8980  105.7840    2.1550    2.2750    0.3310    3.9350 2610.9939 
2258.8000  311.0000  316.5200  314.8450 2258.8000  -13.5220  295.2910  105.0120    2.1550    2.2790    0.3400    3.9770 2604.1799 
2258.9000  311.0000  316.6250  314.8260 2258.8999  -13.5220  294.6820  106.2610    2.1550    2.2820    0.3480    4.0200 2600.7451 
2259.0000  311.0000  316.7290  314.8070 2259.0000  -13.5220  294.5070  107.6180    2.1550    2.2860    0.3450    4.0620 2599.2271 
2259.1000  311.0000  316.8340  314.7870 2259.1001  -13.5240  294.3930  108.9840    2.1550    2.2900    0.3400    4.0800 2597.0940 
2259.2000  311.0000  316.9390  314.8230 2259.2000  -13.5170  294.2790  109.8120    2.1550    2.2930    0.3340    4.0770 2594.0220 
2259.3000  311.0000  317.0270  314.8680 2259.3000  -14.1230  294.1640  109.4620    2.1550    2.2980    0.3410    4.0720 2590.8469 
2259.4000  311.0000  316.9440  314.9130 2259.3999  -16.5820  294.0500  108.1940    2.1550    2.2970    0.3530    4.1180 2587.9189 
2259.5000  311.0000  316.8650  314.9580 2259.5000  -19.0220  293.9350  106.8550    2.1550    2.2940    0.3660    4.1750 2586.1399 
2259.6000  311.0000  316.7850  315.0030 2259.6001  -21.4530  293.8200  106.0780    2.1550    2.2920    0.3740    4.2330 2587.4370 
2259.7000  311.0000  316.7050  315.0480 2259.7000  -23.6280  294.0620  106.2220    2.1550    2.2900    0.3700    4.2590 2588.7280 
2259.8000  311.0000  316.6240  315.0930 2259.8000  -25.5110  294.4000  106.3720    2.1550    2.2880    0.3620    4.2170 2590.0630 
2259.9000  311.0000  316.5440  315.1370 2259.8999  -27.3830  294.7390  106.4110    2.1550    2.2850    0.3530    4.1380 2589.1960 
2260.0000  311.0000  316.4640  315.1820 2260.0000  -29.2690  295.0780  106.2510    2.1550    2.2830    0.3460    4.0390 2587.8130 
2260.1000  311.0000  316.3840  315.2270 2260.1001  -30.4660  295.4210  106.3980    2.1550    2.2810    0.3430    3.9400 2587.3660 
2260.2000  311.0000  316.3040  315.2720 2260.2000  -31.5130  295.4400  106.8170    2.1550    2.2790    0.3430    3.8410 2590.5020 
2260.3000  311.0000  316.2240  315.3170 2260.3000  -31.1170  294.3860  106.9270    2.1550    2.2770    0.3420    3.7580 2594.8259 
2260.4000  311.0000  316.1440  315.3620 2260.3999  -29.5930  292.2250  106.5590    2.1550    2.2950    0.3400    3.7170 2600.1550 
2260.5000  311.0000  316.0640  315.4070 2260.5000  -28.0520  290.0560  104.6380    2.1550    2.3090    0.3330    3.7820 2605.5229 
2260.6000  311.0000  315.9840  315.4520 2260.6001  -26.5100  289.1490  102.7600    2.1550    2.3220    0.3270    3.9020 2610.8669 
2260.7000  311.0000  315.9050  315.4970 2260.7000  -24.9690  289.5650  100.8760    2.1550    2.3410    0.3180    4.0320 2615.0840 
2260.8000  311.0000  315.8130  315.5330 2260.8000  -23.4270  291.3270   99.7660    2.1550    2.3340    0.3220    4.1410 2618.0940 
2260.9000  311.0000  315.5260  315.5130 2260.8999  -21.8890  293.0840  100.2820    2.1550    2.3230    0.3270    4.1990 2617.1460 
2261.0000  311.0000  315.5550  315.4940 2261.0000  -20.3660  294.8410  102.4160    2.1530    2.3120    0.3320    4.1320 2615.5820 
2261.1000  311.0000  315.5770  315.4760 2261.1001  -20.1740  296.5940  104.8100    2.1510    2.3010    0.3360    4.0540 2613.7080 
2261.2000  311.0000  315.5970  315.4570 2261.2000  -20.0130  298.3970  107.2180    2.1490    2.2900    0.3370    3.9300 2611.8921 
2261.3000  311.0000  315.6170  315.4380 2261.3000  -19.8710  297.7270  107.8430    2.1470    2.2790    0.3340    3.7910 2610.1431 
2261.4000  311.0000  315.6380  315.4190 2261.3999  -21.2500  297.0330  107.1440    2.1440    2.2680    0.3330    3.6530 2608.3989 
2261.5000  311.0000  315.6580  315.4010 2261.5000  -22.7120  296.3390  105.8930    2.1420    2.2570    0.3330    3.5150 2606.6589 
2261.6000  311.0000  315.6790  315.3820 2261.6001  -24.1620  295.6440  104.6040    2.1400    2.2460    0.3350    3.4710 2604.9050 
2261.7000  311.0000  315.6990  315.3630 2261.7000  -23.6930  294.9490  104.8300    2.1380    2.2520    0.3370    3.4620 2604.6990 
2261.8000  311.0000  315.7200  315.3450 2261.8000  -21.9960  294.7390  105.4990    2.1360    2.2590    0.3400    3.5180 2607.7019 
2261.9000  311.0000  315.7400  315.3260 2261.8999  -19.8460  294.9960  106.3690    2.1350    2.2660    0.3460    3.6340 2611.8450 
2262.0000  311.0000  315.7610  315.3070 2262.0000  -17.6700  295.2530  107.2340    2.1350    2.2720    0.3530    3.7650 2615.9829 
2262.1000  311.0000  315.7810  315.2890 2262.1001  -15.4950  295.5090  108.0970    2.1350    2.2790    0.3600    3.8980 2618.2329 
2262.2000  311.0000  315.8020  315.2000 2262.2000  -13.3240  295.7660  108.9110    2.1350    2.2860    0.3620    3.9550 2618.2251 
2262.3000  311.0000  315.8220  315.0920 2262.3000  -11.8100  296.0230  109.2080    2.1350    2.2920    0.3620    3.9950 2615.2820 
2262.4000  311.0000  315.8430  314.9850 2262.3999  -11.1940  296.1540  108.1020    2.1350    2.2990    0.3600    4.0360 2612.3530 
2262.5000  311.0000  315.8630  314.8780 2262.5000  -10.5730  295.9760  106.4340    2.1350    2.3090    0.3550    4.0780 2610.4861 
2262.6000  311.0000  315.8840  314.7700 2262.6001  -10.8960  295.7990  104.8020    2.1350    2.3040    0.3490    4.1200 2609.8889 
2262.7000  311.0000  315.9040  314.6630 2262.7000  -14.2590  295.6210  103.1590    2.1350    2.2960    0.3400    4.0970 2609.3130 
2262.8000  311.0000  315.9250  314.5520 2262.8000  -17.5880  295.4430  102.0480    2.1350    2.2870    0.3290    4.0700 2608.6931 
2262.9000  311.0000  315.9450  314.6150 2262.8999  -20.9230  295.2640  101.1160    2.1350    2.2790    0.3170    4.0430 2605.6990 
2263.0000  311.0000  315.9660  314.7140 2263.0000  -24.0380  294.8860  100.5200    2.1350    2.2670    0.3060    4.0450 2602.5859 
2263.1000  311.0000  315.9860  314.8120 2263.1001  -25.8340  294.4100  100.6750    2.1350    2.2690    0.3030    4.0670 2599.4700 
2263.2000  311.0000  316.0070  314.9100 2263.2000  -26.1300  293.9350  100.8310    2.1350    2.2740    0.3040    4.0880 2596.3579 
2263.3000  311.0000  316.0270  315.0080 2263.3000  -26.0690  293.4590  100.9860    2.1350    2.2780    0.3080    4.0690 2593.2361 
2263.4000  311.0000  316.0270  315.1060 2263.3999  -26.0160  292.9840  101.1410    2.1350    2.2830    0.3120    4.0000 2592.1021 
2263.5000  311.0000  316.0160  315.2050 2263.5000  -25.9630  292.8570  101.3970    2.1350    2.2880    0.3170    3.8970 2594.3870 
2263.6000  311.0000  316.0060  315.3030 2263.6001  -25.9090  293.9980  101.7720    2.1350    2.2750    0.3200    3.8410 2601.5029 
2263.7000  311.0000  315.9960  315.4010 2263.7000  -25.8560  295.1390  102.1470    2.1330    2.2610    0.3230    3.8600 2608.6899 
2263.8000  311.0000  315.9850  315.4990 2263.8000  -25.8030  296.2800  102.5250    2.1170    2.2480    0.3260    3.9180 2615.8711 
2263.9000  311.0000  315.9750  315.5230 2263.8999  -25.7470  297.4200  102.9200    2.1020    2.2350    0.3300    3.9750 2615.2661 
