~VERSION INFORMATION
 VERS.                 2.0:   CWLS LOG ASCII STANDARD - VERSION 2.0
 WRAP.                  NO:   SINGLE LINE PER DEPTH STEP
 CREA.                 21/06/2013 8:55:46 AM
#CREATED USING IP VERSION 4.1.2012.198 BY NEIL WATSON ON 21/06/2013 8:55:46 AM
~WELL INFORMATION
#MNEM.UNIT       DATA                          DESCRIPTION MNEMONIC
#---------      ---------------------------   --------------------------
 STRT    .M         900.0000                  : START DEPTH
 STOP    .M         3455.0000                 : STOP DEPTH
 STEP    .M         0.1000                    : STEP VALUE
 NULL    .      -999.0000                     : NULL VALUE
 SRVC    .      SCH                           : Service Company/Logging company
 DATE    .      21/06/2013                    : LAS file Creation Date
 WELL    .      SHELL PCI ET AL PANUKE B-90   : Well Name
 COMP    .      SHELL CANADA LIMITED          : Company
 FLD     .      SCOTIAN SHELF                 : Field
 STATE   .      ONTARIO                       : State
 COUNT   .      CANADA                        : Country
 LOC     .      43� 49' 11 _ 9" N|60� 42' 34 _: Location
 LATI    .      0                             : Latitude/Northing
 LONG    .      0                             : Longitude/Easting
 PDAT    .      RT                            : Permanent Datum
 EPDAT   .      0.0000                        : Elevation of Permanent Datum
 KB      .      23.3000                       : KB Elevation
 DF      .      22.7000                       : DF Elevation
 GL      .      47.0000                       : GL Elevation
 RWS     .      -999                          : Def_Rw
 WST     .      -999                          : Def_Rwt
 ERT     .      0.0000                        : RT Elevation
 CNTY    .      NOVA SCOTIA                   : County
 SRVC    .      SCH                           : Contractor
~CURVE INFORMATION
#MNEM                  UNIT       API CODE   Curve Type        Comments
#----------      --------------- ----------  --------------- -----------
 DEPTH          .M                         : Depth           
 BS             .mm                        :                 
 CALI           .MM                        : Caliper         Caliper
 CALS           .MM                        : Caliper         Caliper
 DepOffCPORtoRH .M                         : Depth           
 DRHO           .KG/M3                     : Drho            Delta Rho
 DT             .US/M                      : Sonic           Delta-T
 GR             .GAPI                      : GammaRay        Gamma Ray
 ILD            .OHMM                      : DeepRes         Deep Induction Standard Processed Resistivity
 ILM            .OHMM                      : MedRes          Medium Induction Standard Processed Resistivity
 NPHISS         .V/V                       : Neutron         NPHISS
 PE             .B/E                       : PEF             
 RHOB           .KG/M3                     : Density         Bulk Density
~A  DEPTH     BS       CALI      CALS   DepOffCP~    DRHO       DT        GR       ILD       ILM      NPHISS      PE       RHOB   
# ...
2592.6000  311.0000  308.5110  315.2490 2592.6001  -11.1440  221.5090   25.5240    1.0500    1.0290    0.1670    3.9970 2468.1621 
2592.7000  311.0000  308.4880  315.3630 2592.7000   -8.6130  209.9550   24.6770    1.1100    1.1550    0.1360    4.2380 2519.4700 
2592.8000  311.0000  308.4080  314.7440 2592.8000   -7.4160  199.9920   24.2910    1.1700    1.3670    0.1060    4.3370 2560.0569 
2592.9000  311.0000  308.3240  314.1260 2592.8999   -7.8090  195.6530   23.9070    1.3070    1.7040    0.0870    4.4300 2573.8491 
2593.0000  311.0000  307.9810  313.5100 2593.0000   -8.2240  191.3140   23.2240    1.5080    2.1250    0.0800    4.5240 2579.3049 
2593.1000  311.0000  307.4620  312.8930 2593.1001   -8.6050  187.9870   22.3460    1.7930    2.6480    0.0790    4.6090 2580.0591 
2593.2000  311.0000  306.9430  312.2760 2593.2000   -6.2690  189.1820   21.4650    2.2940    3.3340    0.0870    4.6230 2580.6760 
2593.3000  311.0000  306.4230  311.6610 2593.3000   -3.8160  194.3440   20.5970    2.9240    3.6970    0.1000    4.4300 2572.1030 
2593.4000  311.0000  305.9040  311.0610 2593.3999   -3.2540  203.2770   20.5570    3.3470    3.9340    0.1170    4.2140 2547.2229 
2593.5000  311.0000  305.3840  311.3320 2593.5000   -5.4720  212.2070   21.4490    3.6910    3.7130    0.1430    3.9990 2510.6890 
2593.6000  311.0000  304.8620  311.6240 2593.6001   -7.7330  221.1370   23.1470    3.9640    3.4640    0.1640    3.7840 2473.8550 
2593.7000  311.0000  304.3720  311.9180 2593.7000   -7.4340  228.9450   24.8380    4.2120    3.2320    0.1710    3.6040 2427.4250 
2593.8000  311.0000  304.7560  312.2130 2593.8000   -0.9370  227.5090   26.5220    4.4120    2.9320    0.1560    3.4850 2409.6799 
2593.9000  311.0000  305.4280  312.4860 2593.8999    9.9660  217.1020   27.4920    4.3770    3.0260    0.1350    3.4510 2431.3191 
2594.0000  311.0000  306.1180  312.7560 2594.0000   18.3260  206.5100   27.7940    4.3130    3.1920    0.1130    3.4550 2463.0281 
2594.1000  311.0000  306.8110  313.0250 2594.1001   21.8300  195.9190   28.0880    3.9840    3.3670    0.0900    3.4590 2501.8569 
2594.2000  311.0000  307.5000  313.2940 2594.2000   16.3400  189.6420   28.3830    3.6570    3.5060    0.0710    3.4010 2528.6941 
2594.3000  311.0000  307.6890  313.5630 2594.3000    6.5120  186.9700   28.6760    3.2890    3.6050    0.0680    3.3300 2544.2839 
2594.4000  311.0000  307.5180  313.8320 2594.3999   -3.4620  189.5140   28.9680    2.7240    3.4590    0.0760    3.1620 2538.4409 
2594.5000  311.0000  307.3440  314.1010 2594.5000   -8.4830  196.5090   28.5660    2.4410    2.9640    0.0910    2.9530 2520.7900 
2594.6000  311.0000  306.8600  314.3700 2594.6001  -10.9200  205.1190   28.0990    2.1850    2.5230    0.1120    2.7440 2492.9260 
2594.7000  311.0000  306.2430  314.4320 2594.7000  -12.3020  217.2340   27.6920    1.9790    2.0990    0.1330    2.6370 2455.6399 
2594.8000  311.0000  305.6290  314.1730 2594.8000  -13.6780  229.1060   28.8830    1.8560    1.7470    0.1540    2.6060 2416.6641 
2594.9000  311.0000  305.0140  313.9110 2594.8999  -14.1490  234.7600   30.0600    1.7420    1.5580    0.1640    2.6250 2380.2910 
2595.0000  311.0000  304.3990  313.6490 2595.0000  -13.3350  240.3110   31.2410    1.5920    1.4010    0.1700    2.6950 2366.0449 
2595.1000  311.0000  303.7840  313.3880 2595.1001  -12.5060  245.3710   32.4250    1.4220    1.2730    0.1760    2.7900 2354.4070 
2595.2000  311.0000  303.1720  313.1260 2595.2000  -11.6810  247.2710   33.1620    1.2640    1.2210    0.1830    2.8480 2349.3711 
2595.3000  311.0000  302.6100  312.8630 2595.3000  -10.8520  248.9000   33.0900    1.1100    1.1710    0.1940    2.8380 2344.3831 
2595.4000  311.0000  303.3280  313.1010 2595.3999  -10.1490  249.5110   33.5820    1.0120    1.1230    0.2040    2.7850 2343.2571 
2595.5000  311.0000  303.9490  313.5520 2595.5000  -10.5990  248.0780   34.5310    0.9650    1.0820    0.2010    2.7330 2349.0830 
2595.6000  311.0000  304.5760  314.0000 2595.6001  -10.9910  244.4550   36.5000    0.9700    1.0620    0.1950    2.6810 2363.9509 
2595.7000  311.0000  305.2040  314.4490 2595.7000  -13.1530  240.9480   38.5830    0.9760    1.0770    0.1790    2.6400 2393.5210 
2595.8000  311.0000  305.8310  314.8960 2595.8000  -15.6300  237.4420   40.6220    0.9810    1.1190    0.1630    2.6370 2423.0049 
2595.9000  311.0000  306.4570  314.9190 2595.8999  -18.0950  235.4520   40.1460    0.9870    1.1660    0.1480    2.6460 2452.4980 
2596.0000  311.0000  307.0920  314.7050 2596.0000  -20.5730  234.8040   39.5770    0.9960    1.2140    0.1420    2.6600 2475.2529 
2596.1000  311.0000  307.5230  314.4920 2596.1001  -20.5850  236.3580   37.2420    0.9870    1.2710    0.1470    2.6750 2468.3740 
2596.2000  311.0000  307.1060  314.2780 2596.2000  -20.3220  238.6150   34.9230    0.9660    1.2540    0.1560    2.6760 2449.3960 
2596.3000  311.0000  306.0730  314.0640 2596.3000  -20.0620  241.2450   32.5970    0.9470    1.2350    0.1740    2.6270 2412.5979 
2596.4000  311.0000  305.0440  313.8510 2596.3999  -19.8030  243.8750   30.8420    0.9270    1.1580    0.1920    2.5800 2383.7439 
2596.5000  311.0000  304.0610  313.6370 2596.5000  -19.5360  246.5050   29.5660    0.8850    1.0680    0.2100    2.5330 2361.2800 
2596.6000  311.0000  304.0060  313.4230 2596.6001  -20.0040  249.1370   28.2970    0.8350    0.9920    0.2180    2.4860 2345.8960 
2596.7000  311.0000  303.9630  313.2090 2596.7000  -22.2070  251.7710   28.9850    0.7880    0.9360    0.2240    2.4750 2340.6160 
2596.8000  311.0000  303.9220  312.9960 2596.8000  -24.4020  253.2400   29.7350    0.7460    0.8840    0.2260    2.4810 2339.5540 
2596.9000  311.0000  303.8820  312.7820 2596.8999  -25.8820  254.2920   30.5040    0.7090    0.8350    0.2280    2.4860 2338.6411 
2597.0000  311.0000  303.8410  312.5680 2597.0000  -26.3820  255.3440   30.9890    0.6750    0.7920    0.2290    2.5050 2337.1580 
2597.1000  311.0000  303.8000  312.3540 2597.1001  -26.8750  256.3960   30.5510    0.6470    0.7620    0.2290    2.5250 2333.0820 
2597.2000  311.0000  303.7590  312.1410 2597.2000  -27.3690  257.2640   29.8030    0.6310    0.7410    0.2260    2.5440 2329.0950 
2597.3000  311.0000  303.7190  311.9270 2597.3000  -27.8670  255.9820   29.0610    0.6150    0.7370    0.2220    2.5640 2325.6631 
2597.4000  311.0000  303.6780  311.7780 2597.3999  -28.3320  254.7260   28.3200    0.5990    0.7320    0.2150    2.5800 2323.3391 
2597.5000  311.0000  303.6370  311.7500 2597.5000  -28.0890  253.4710   27.6860    0.5870    0.7380    0.2130    2.5680 2320.9209 
2597.6000  311.0000  303.5960  311.7220 2597.6001  -28.1110  252.8980   27.1650    0.5880    0.7440    0.2130    2.5570 2322.1799 
2597.7000  311.0000  303.5530  311.6930 2597.7000  -27.8180  252.6450   26.6260    0.5890    0.7510    0.2130    2.5450 2324.5491 
2597.8000  311.0000  303.6440  311.6650 2597.8000  -24.7120  252.3920   27.5420    0.5900    0.7590    0.2120    2.5340 2327.0471 
2597.9000  311.0000  303.7720  311.6360 2597.8999  -21.6090  252.1330   28.5580    0.6030    0.7720    0.2090    2.5220 2329.5459 
2598.0000  311.0000  303.8990  311.6080 2598.0000  -18.5010  250.9030   29.5750    0.6180    0.7850    0.2060    2.5120 2332.0520 
2598.1000  311.0000  304.0260  311.5800 2598.1001  -15.4000  249.3210   30.5910    0.6330    0.7990    0.2030    2.5400 2334.4700 
2598.2000  311.0000  304.1530  311.5510 2598.2000  -13.0590  247.7340   31.6110    0.6660    0.8130    0.2030    2.5670 2340.1580 
2598.3000  311.0000  304.2790  311.5230 2598.3000  -11.8830  246.0240   32.1990    0.7070    0.8440    0.2050    2.6160 2348.7051 
2598.4000  311.0000  304.3410  311.4950 2598.3999  -11.8000  243.0650   31.9110    0.7660    0.8910    0.2070    2.6850 2357.9221 
2598.5000  311.0000  304.3920  311.4660 2598.5000  -12.5080  239.4120   31.6200    0.8300    0.9780    0.2050    2.7530 2367.2891 
2598.6000  311.0000  304.4440  311.4380 2598.6001  -14.8610  234.0990   31.3300    0.9020    1.0730    0.1960    2.8840 2381.9160 
2598.7000  311.0000  304.4970  311.4100 2598.7000  -17.1480  225.3470   31.5660    0.9870    1.1710    0.1770    3.1550 2399.0581 
