~VERSION INFORMATION
 VERS.                 2.0:   CWLS LOG ASCII STANDARD - VERSION 2.0
 WRAP.                  NO:   SINGLE LINE PER DEPTH STEP
 CREA.                 21/06/2013 8:55:46 AM
#CREATED USING IP VERSION 4.1.2012.198 BY NEIL WATSON ON 21/06/2013 8:55:46 AM
~WELL INFORMATION
#MNEM.UNIT       DATA                          DESCRIPTION MNEMONIC
#---------      ---------------------------   --------------------------
 STRT    .M         900.0000                  : START DEPTH
 STOP    .M         3455.0000                 : STOP DEPTH
 STEP    .M         0.1000                    : STEP VALUE
 NULL    .      -999.0000                     : NULL VALUE
 SRVC    .      SCH                           : Service Company/Logging company
 DATE    .      21/06/2013                    : LAS file Creation Date
 WELL    .      SHELL PCI ET AL PANUKE B-90   : Well Name
 COMP    .      SHELL CANADA LIMITED          : Company
 FLD     .      SCOTIAN SHELF                 : Field
 STATE   .      ONTARIO                       : State
 COUNT   .      CANADA                        : Country
 LOC     .      43� 49' 11 _ 9" N|60� 42' 34 _: Location
 LATI    .      0                             : Latitude/Northing
 LONG    .      0                             : Longitude/Easting
 PDAT    .      RT                            : Permanent Datum
 EPDAT   .      0.0000                        : Elevation of Permanent Datum
 KB      .      23.3000                       : KB Elevation
 DF      .      22.7000                       : DF Elevation
 GL      .      47.0000                       : GL Elevation
 RWS     .      -999                          : Def_Rw
 WST     .      -999                          : Def_Rwt
 ERT     .      0.0000                        : RT Elevation
 CNTY    .      NOVA SCOTIA                   : County
 SRVC    .      SCH                           : Contractor
~CURVE INFORMATION
#MNEM                  UNIT       API CODE   Curve Type        Comments
#----------      --------------- ----------  --------------- -----------
 DEPTH          .M                         : Depth           
 BS             .mm                        :                 
 CALI           .MM                        : Caliper         Caliper
 CALS           .MM                        : Caliper         Caliper
 DepOffCPORtoRH .M                         : Depth           
 DRHO           .KG/M3                     : Drho            Delta Rho
 DT             .US/M                      : Sonic           Delta-T
 GR             .GAPI                      : GammaRay        Gamma Ray
 ILD            .OHMM                      : DeepRes         Deep Induction Standard Processed Resistivity
 ILM            .OHMM                      : MedRes          Medium Induction Standard Processed Resistivity
 NPHISS         .V/V                       : Neutron         NPHISS
 PE             .B/E                       : PEF             
 RHOB           .KG/M3                     : Density         Bulk Density
~A  DEPTH     BS       CALI      CALS   DepOffCP~    DRHO       DT        GR       ILD       ILM      NPHISS      PE       RHOB   
# ...
3101.0000  311.0000  310.8250  314.4070 3101.0000    9.5150  248.8770   94.8200    5.9330    6.2290    0.2450    3.2470 2641.9590 
3101.1000  311.0000  310.9630  314.4170 3101.1001    8.0010  248.0470   93.1670    5.9630    6.2600    0.2420    3.1950 2638.9900 
3101.2000  311.0000  311.1010  314.4270 3101.2000    5.9740  247.7790   91.5150    5.9930    6.2910    0.2490    3.1430 2633.4910 
3101.3000  311.0000  311.2380  314.4370 3101.3000    3.9550  247.9660   90.2770    6.0240    6.3220    0.2580    3.1640 2628.0381 
3101.4000  311.0000  311.3670  314.4470 3101.3999    1.9290  248.1120   90.0710    6.0550    6.3540    0.2670    3.2080 2624.0691 
3101.5000  311.0000  311.1600  314.4570 3101.5000    0.1460  248.1930   90.0750    6.1000    6.3850    0.2700    3.2790 2622.1650 
3101.6000  311.0000  310.9490  314.4670 3101.6001    0.7920  248.2780   90.0690    6.1460    6.4100    0.2710    3.2940 2623.5601 
3101.7000  311.0000  310.7370  314.4770 3101.7000    1.3870  248.9190   89.3760    6.1930    6.4320    0.2690    3.2850 2624.8950 
3101.8000  311.0000  310.5250  314.4870 3101.8000    1.9480  249.5770   87.7330    6.2240    6.4530    0.2680    3.2440 2626.2400 
3101.9000  311.0000  310.3120  314.4970 3101.8999    6.3660  249.9730   86.5840    6.2240    6.4740    0.2730    3.2040 2627.5891 
3102.0000  311.0000  310.1440  314.5070 3102.0000   11.8720  250.1520   86.0870    6.2240    6.4960    0.2790    3.2130 2629.7959 
3102.1000  311.0000  310.3560  314.5170 3102.1001   17.0930  250.3320   87.5210    6.2240    6.5170    0.2830    3.2580 2631.9651 
3102.2000  311.0000  310.5610  314.5270 3102.2000   19.7360  250.3400   88.9450    6.2240    6.5390    0.2820    3.3520 2636.5649 
3102.3000  311.0000  310.7680  314.5330 3102.3000   21.7680  249.6820   90.3990    6.2240    6.5600    0.2790    3.4770 2641.9390 
3102.4000  311.0000  310.9750  314.5100 3102.3999   19.0150  248.6270   91.1180    6.2240    6.5760    0.2750    3.6020 2647.3560 
3102.5000  311.0000  311.1810  314.4880 3102.5000   12.6530  247.3900   91.6690    6.2290    6.5760    0.2710    3.7070 2647.6140 
3102.6000  311.0000  311.3670  314.4660 3102.6001    5.8940  246.2460   92.4980    6.2350    6.5760    0.2680    3.7580 2643.2339 
3102.7000  311.0000  311.2110  314.4440 3102.7000   -0.9560  245.9180   93.7830    6.2400    6.5760    0.2630    3.5740 2635.1699 
3102.8000  311.0000  311.0580  314.4220 3102.8000   -1.0480  246.5340   95.0750    6.2460    6.5760    0.2580    3.4180 2626.9189 
3102.9000  311.0000  310.9040  314.4000 3102.8999    0.1470  247.2690   96.0050    6.2520    6.5760    0.2480    3.2620 2620.7241 
3103.0000  311.0000  310.7500  314.3780 3103.0000    4.5000  248.0040   96.2420    6.2580    6.5760    0.2450    3.1040 2625.2561 
3103.1000  311.0000  310.5960  314.3560 3103.1001    8.7100  248.7390   96.4800    6.2640    6.5760    0.2440    3.0610 2633.7429 
3103.2000  311.0000  310.4440  314.3340 3103.2000   11.7350  249.4750   96.5650    6.2700    6.5870    0.2440    3.0430 2642.4380 
3103.3000  311.0000  310.4020  314.3120 3103.3000   12.2070  249.8700   95.7940    6.2760    6.5980    0.2440    3.0880 2647.6289 
3103.4000  311.0000  310.4480  314.2900 3103.3999   12.6760  249.9830   95.0420    6.2820    6.6090    0.2440    3.1420 2650.2571 
3103.5000  311.0000  310.4940  314.2670 3103.5000   13.0280  249.5100   94.3050    6.2880    6.6200    0.2430    3.2130 2651.4009 
3103.6000  311.0000  310.5410  314.2450 3103.6001   12.5660  249.0390   94.7670    6.2940    6.6310    0.2420    3.2840 2649.8491 
3103.7000  311.0000  310.5870  314.2230 3103.7000   12.1180  248.5690   95.2530    6.3000    6.6430    0.2390    3.3560 2647.6399 
3103.8000  311.0000  310.6340  314.2010 3103.8000   11.6690  248.1000   95.8500    6.3060    6.6540    0.2340    3.4280 2642.3770 
3103.9000  311.0000  310.6800  314.1790 3103.8999   11.2200  247.6300   96.4560    6.3100    6.6650    0.2300    3.4530 2637.1631 
3104.0000  311.0000  310.7270  314.1570 3104.0000   10.7710  247.1610   97.0610    6.3050    6.6670    0.2260    3.4670 2633.0601 
3104.1000  311.0000  310.7740  314.1350 3104.1001   10.3160  247.8000   97.6650    6.3010    6.6550    0.2230    3.4800 2631.4890 
3104.2000  311.0000  310.8200  314.1130 3104.2000    9.3900  248.6800   98.2720    6.2970    6.6290    0.2260    3.4780 2629.9270 
3104.3000  311.0000  310.8690  314.0910 3104.3000    7.9630  249.5570   98.8760    6.2930    6.6020    0.2300    3.4750 2628.0869 
3104.4000  311.0000  310.7790  314.0690 3104.3999    6.5340  250.4340   98.5790    6.2890    6.5760    0.2350    3.4930 2624.4390 
3104.5000  311.0000  310.6600  314.0470 3104.5000    5.1340  251.3100   97.8320    6.2850    6.5500    0.2390    3.5150 2620.7810 
3104.6000  311.0000  310.5420  314.0480 3104.6001    5.4170  252.1870   97.0910    6.2760    6.5240    0.2430    3.5050 2619.4951 
3104.7000  311.0000  310.4240  314.0710 3104.7000    6.2430  252.1970   96.4160    6.2410    6.4980    0.2460    3.4710 2621.6880 
3104.8000  311.0000  310.3060  314.0940 3104.8000    8.1100  252.1150   97.3610    6.2050    6.4720    0.2470    3.4360 2626.4790 
3104.9000  311.0000  310.1890  314.1170 3104.8999    9.9780  252.2910   98.3000    6.1700    6.4490    0.2480    3.4010 2631.1731 
3105.0000  311.0000  310.1730  314.1400 3105.0000   11.8410  252.7590   99.2560    6.1350    6.4320    0.2490    3.3660 2635.8569 
3105.1000  311.0000  310.2710  314.1640 3105.1001   13.7670  253.2260   99.2700    6.1080    6.4150    0.2540    3.3640 2639.4290 
3105.2000  311.0000  310.3700  314.1870 3105.2000   13.0050  253.6950   98.2370    6.0980    6.3980    0.2600    3.3720 2640.4590 
3105.3000  311.0000  310.4690  314.2100 3105.3000   11.6520  254.1660   96.3100    6.0880    6.3800    0.2650    3.4120 2640.9741 
3105.4000  311.0000  310.5680  314.2330 3105.3999   10.3090  253.3630   94.3680    6.0780    6.3630    0.2640    3.4510 2640.1311 
3105.5000  311.0000  310.6670  314.2560 3105.5000    8.9600  252.1800   92.4710    6.0680    6.3400    0.2570    3.4580 2639.2480 
3105.6000  311.0000  310.7670  314.2790 3105.6001    9.2550  250.9970   91.1200    6.0580    6.3470    0.2490    3.4450 2640.5239 
3105.7000  311.0000  310.8640  314.3030 3105.7000   10.1850  249.8130   89.8060    6.0480    6.3610    0.2420    3.3790 2642.6289 
3105.8000  311.0000  310.9390  314.3260 3105.8000   11.0990  248.6300   87.6120    6.0380    6.3750    0.2350    3.2860 2646.7319 
3105.9000  311.0000  311.0100  314.3490 3105.8999   12.0310  247.4500   85.0590    6.0270    6.3880    0.2300    3.1900 2650.8340 
3106.0000  311.0000  311.0810  314.3720 3106.0000   10.3100  247.6860   84.4670    6.0380    6.4020    0.2290    3.2120 2651.9441 
3106.1000  311.0000  311.1520  314.3950 3106.1001    8.4320  248.5590   85.1880    6.0500    6.4160    0.2290    3.2580 2652.9880 
3106.2000  311.0000  311.2230  314.4180 3106.2000    6.4850  249.4370   87.7230    6.0610    6.4270    0.2320    3.4310 2653.8679 
3106.3000  311.0000  311.2930  314.4420 3106.3000    6.5980  250.3130   90.7100    6.0730    6.4110    0.2350    3.6270 2651.6021 
3106.4000  311.0000  311.3640  314.4650 3106.3999    7.2630  251.1900   93.4910    6.0850    6.3970    0.2400    3.7860 2649.4839 
3106.5000  311.0000  311.4350  314.4880 3106.5000    7.5950  252.0670   94.0970    6.0960    6.3840    0.2440    3.8310 2641.2351 
3106.6000  311.0000  311.5060  314.5110 3106.6001    7.5780  250.9720   92.0580    6.1080    6.3680    0.2460    3.7590 2631.5061 
3106.7000  311.0000  311.5770  314.5350 3106.7000    6.1790  249.2750   89.7220    6.1200    6.3890    0.2460    3.6740 2621.5630 
3106.8000  311.0000  311.5960  314.5350 3106.8000    3.5780  247.5790   87.3980    6.1320    6.4140    0.2420    3.5900 2615.7009 
3106.9000  311.0000  311.5050  314.5350 3106.8999    0.3970  245.8820   85.9890    6.1390    6.4400    0.2350    3.5230 2612.4790 
3107.0000  311.0000  311.4140  314.5350 3107.0000   -2.7530  244.2840   85.9230    6.1020    6.4650    0.2270    3.4820 2613.8401 
3107.1000  311.0000  311.3230  314.5350 3107.1001   -5.9140  245.1180   87.3330    6.0750    6.4910    0.2200    3.4410 2618.8931 
