~VERSION INFORMATION
 VERS.                 2.0:   CWLS LOG ASCII STANDARD - VERSION 2.0
 WRAP.                  NO:   SINGLE LINE PER DEPTH STEP
 CREA.                 21/06/2013 8:55:46 AM
#CREATED USING IP VERSION 4.1.2012.198 BY NEIL WATSON ON 21/06/2013 8:55:46 AM
~WELL INFORMATION
#MNEM.UNIT       DATA                          DESCRIPTION MNEMONIC
#---------      ---------------------------   --------------------------
 STRT    .M         900.0000                  : START DEPTH
 STOP    .M         3455.0000                 : STOP DEPTH
 STEP    .M         0.1000                    : STEP VALUE
 NULL    .      -999.0000                     : NULL VALUE
 SRVC    .      SCH                           : Service Company/Logging company
 DATE    .      21/06/2013                    : LAS file Creation Date
 WELL    .      SHELL PCI ET AL PANUKE B-90   : Well Name
 COMP    .      SHELL CANADA LIMITED          : Company
 FLD     .      SCOTIAN SHELF                 : Field
 STATE   .      ONTARIO                       : State
 COUNT   .      CANADA                        : Country
 LOC     .      43� 49' 11 _ 9" N|60� 42' 34 _: Location
 LATI    .      0                             : Latitude/Northing
 LONG    .      0                             : Longitude/Easting
 PDAT    .      RT                            : Permanent Datum
 EPDAT   .      0.0000                        : Elevation of Permanent Datum
 KB      .      23.3000                       : KB Elevation
 DF      .      22.7000                       : DF Elevation
 GL      .      47.0000                       : GL Elevation
 RWS     .      -999                          : Def_Rw
 WST     .      -999                          : Def_Rwt
 ERT     .      0.0000                        : RT Elevation
 CNTY    .      NOVA SCOTIA                   : County
 SRVC    .      SCH                           : Contractor
~CURVE INFORMATION
#MNEM                  UNIT       API CODE   Curve Type        Comments
#----------      --------------- ----------  --------------- -----------
 DEPTH          .M                         : Depth           
 BS             .mm                        :                 
 CALI           .MM                        : Caliper         Caliper
 CALS           .MM                        : Caliper         Caliper
 DepOffCPORtoRH .M                         : Depth           
 DRHO           .KG/M3                     : Drho            Delta Rho
 DT             .US/M                      : Sonic           Delta-T
 GR             .GAPI                      : GammaRay        Gamma Ray
 ILD            .OHMM                      : DeepRes         Deep Induction Standard Processed Resistivity
 ILM            .OHMM                      : MedRes          Medium Induction Standard Processed Resistivity
 NPHISS         .V/V                       : Neutron         NPHISS
 PE             .B/E                       : PEF             
 RHOB           .KG/M3                     : Density         Bulk Density
~A  DEPTH     BS       CALI      CALS   DepOffCP~    DRHO       DT        GR       ILD       ILM      NPHISS      PE       RHOB   
 900.0000  311.0000 -999.0000  314.5350  900.0000 -999.0000 -999.0000 -999.0000 -999.0000 -999.0000    0.6640 -999.0000 -999.0000 
 900.1000  311.0000 -999.0000  314.5350  900.1000 -999.0000 -999.0000 -999.0000 -999.0000 -999.0000    0.6560 -999.0000 -999.0000 
 900.2000  311.0000 -999.0000  314.5680  900.2000 -999.0000 -999.0000 -999.0000 -999.0000 -999.0000    0.6330 -999.0000 -999.0000 
 900.3000  311.0000 -999.0000  314.5940  900.3000 -999.0000 -999.0000 -999.0000 -999.0000 -999.0000    0.6040 -999.0000 -999.0000 
 900.4000  311.0000 -999.0000  314.6260  900.4000 -999.0000 -999.0000 -999.0000 -999.0000 -999.0000    0.5750 -999.0000 -999.0000 
 900.5000  311.0000 -999.0000  314.6570  900.5000 -999.0000 -999.0000 -999.0000 -999.0000 -999.0000    0.5730 -999.0000 -999.0000 
 900.6000  311.0000 -999.0000  314.6890  900.6000 -999.0000 -999.0000 -999.0000 -999.0000 -999.0000    0.5780 -999.0000 -999.0000 
 900.7000  311.0000 -999.0000  314.7200  900.7000 -999.0000 -999.0000 -999.0000 -999.0000 -999.0000    0.5860 -999.0000 -999.0000 
 900.8000  311.0000 -999.0000  314.7520  900.8000 -999.0000 -999.0000 -999.0000 -999.0000 -999.0000    0.5940 -999.0000 -999.0000 
 900.9000  311.0000 -999.0000  314.7840  900.9000 -999.0000 -999.0000 -999.0000 -999.0000 -999.0000    0.6020 -999.0000 -999.0000 
 901.0000  311.0000 -999.0000  314.7850  901.0000 -999.0000 -999.0000 -999.0000 -999.0000 -999.0000    0.5880 -999.0000 -999.0000 
 901.1000  311.0000 -999.0000  314.7850  901.1000 -999.0000 -999.0000 -999.0000 -999.0000 -999.0000    0.5750 -999.0000 -999.0000 
 901.2000  311.0000 -999.0000  314.7850  901.2000 -999.0000 -999.0000 -999.0000 -999.0000 -999.0000    0.5610 -999.0000 -999.0000 
 901.3000  311.0000 -999.0000  314.7850  901.3000 -999.0000  264.0490 -999.0000 -999.0000 -999.0000    0.5400 -999.0000 -999.0000 
 901.4000  311.0000 -999.0000  314.7850  901.4000 -999.0000  259.3930 -999.0000 -999.0000 -999.0000    0.5440 -999.0000 -999.0000 
 901.5000  311.0000 -999.0000  314.7850  901.5000 -999.0000  254.7360 -999.0000 -999.0000 -999.0000    0.5520 -999.0000 -999.0000 
 901.6000  311.0000  319.8130  314.7850  901.6000 -999.0000  250.2060 -999.0000 -999.0000 -999.0000    0.5590 -999.0000 -999.0000 
 901.7000  311.0000  320.0870  314.7850  901.7000 -999.0000  238.2820 -999.0000 -999.0000 -999.0000    0.5680 -999.0000 -999.0000 
 901.8000  311.0000  319.9460  314.7850  901.8000 -999.0000  228.5830   29.3750 -999.0000 -999.0000    0.5670 -999.0000 2638.9290 
 901.9000  311.0000  320.5970  314.7990  901.9000 -999.0000  222.3170   28.1180 -999.0000 -999.0000    0.5660 -999.0000 2580.6790 
 902.0000  311.0000  320.8790  314.8360  902.0000 -999.0000  264.5520   29.4200 -999.0000 -999.0000    0.5680 -999.0000 2492.5720 
 902.1000  311.0000  321.1630  314.8740  902.1000 -999.0000  387.7950   30.9130 -999.0000   35.4740    0.5700 -999.0000 2405.5850 
 902.2000  311.0000  321.4390  314.9120  902.2000 -999.0000  499.2640   35.0740 -999.0000    7.4070    0.5680 -999.0000 2300.6909 
 902.3000  311.0000  322.1160  314.9500  902.3000  -58.9150  716.7750   39.7000 -999.0000    7.4110    0.5560    4.3360 2162.0510 
 902.4000  311.0000  324.9470  314.9870  902.4000  -32.6850  874.1470   44.3220 -999.0000    7.8190    0.5180    3.7010 2000.2910 
 902.5000  311.0000  327.7290  315.0250  902.5000  -42.9460  899.1600   48.7530 1897.2510    9.7280    0.4760    3.6810 2001.6801 
 902.6000  311.0000  330.5210  315.0630  902.6000  -58.5330  898.6130   51.3750 1511.1920   14.8350    0.4410    3.6620 2001.2480 
 902.7000  311.0000  334.3570  315.1010  902.7000  -78.7110  894.2120   53.9010  700.4030   18.2870    0.4180    3.8880 1944.2889 
 902.8000  311.0000  338.8230  315.1380  902.8000  -73.8650  885.3220   53.5720  548.6340   18.9670    0.4360    4.0620 1887.2950 
 902.9000  311.0000  348.5540  315.1760  902.9000  -64.2620  772.0810   52.9790    8.7090   10.7800    0.4430    4.2380 1834.2200 
 903.0000  311.0000  362.2830  315.2140  903.0000  -27.0640  665.4010   52.3870    1.1870    3.8820    0.4710    4.4150 1801.2090 
 903.1000  311.0000  382.3660  315.2510  903.1000   11.4510  558.7220   51.7930    0.8650    1.4590    0.4850    4.3850 1813.1169 
 903.2000  311.0000  402.1030  315.3060  903.2000   59.7060  465.7580   51.2060    0.9030    0.9950    0.5120    4.3280 1837.6689 
 903.3000  311.0000  421.8390  315.4770  903.3000   96.4790  448.9650   51.2230    0.9490    0.9620    0.5270    4.2720 1879.6541 
 903.4000  311.0000  436.1580  315.6490  903.4000  114.0980  444.7830   51.6330    1.0360    0.9730    0.5230    4.2390 1902.4050 
 903.5000  311.0000  446.3710  315.8200  903.5000  109.2720  453.5600   52.0420    1.1470    1.0010    0.5190    4.2600 1917.1000 
 903.6000  311.0000  450.6970  315.9920  903.6000   95.2350  459.3720   52.4510    1.2400    1.0390    0.5150    4.3760 1899.6071 
 903.7000  311.0000  455.0010  316.1630  903.7000   79.3900  462.4040   52.8600    1.2720    1.1030    0.5140    4.4900 1882.8870 
 903.8000  311.0000  460.3770  316.3350  903.8000   75.8830  457.9220   53.2690    1.2300    1.1720    0.5160    4.6040 1866.0280 
 903.9000  311.0000  472.2610  316.5060  903.9000   82.6430  454.3210   53.3380    1.1860    1.2380    0.5190    4.6740 1848.9830 
 904.0000  311.0000  476.0690  316.6780  904.0000   90.8350  453.3870   52.8910    1.1440    1.2840    0.5210    4.5970 1841.9139 
 904.1000  311.0000  480.0320  316.8490  904.1000   97.4210  458.6790   52.4380    1.1350    1.2620    0.5220    4.4720 1837.8929 
 904.2000  311.0000  475.8870  317.0300  904.2000  100.3580  461.6610   51.9880    1.1300    1.2420    0.5220    4.3480 1855.4550 
 904.3000  311.0000  475.1660  317.6030  904.3000  103.2810  462.6450   51.5360    1.1250    1.2220    0.5220    4.2240 1877.0110 
 904.4000  311.0000  465.6850  318.2350  904.4000  106.2150  459.5670   51.1570    1.1190    1.2090    0.5250    4.1300 1898.6110 
 904.5000  311.0000  462.2420  320.1430  904.5000  109.1470  455.9370   51.5250    1.1140    1.2570    0.5280    4.1680 1920.1750 
 904.6000  311.0000  466.7180  323.3620  904.6000  112.0790  455.1670   51.8940    1.1080    1.2940    0.5370    4.2260 1939.8450 
 904.7000  311.0000  475.0020  326.5980  904.7000  115.0130  456.5420   52.2650    1.1230    1.3180    0.5460    4.4100 1944.4780 
 904.8000  311.0000  478.3680  329.8340  904.8000  117.9240  457.8660   53.0180    1.1410    1.3070    0.5550    4.5990 1938.2740 
 904.9000  311.0000  487.5110  333.0770  904.9000  120.8230  459.0900   54.2490    1.1600    1.2770    0.5640    4.7870 1924.1720 
 905.0000  311.0000  490.0510  335.8840  905.0000  114.5990  460.3140   55.4830    1.1760    1.2480    0.5720    4.9760 1895.2939 
 905.1000  311.0000  492.5190  336.3240  905.1000  107.9070  461.5380   56.7180    1.1590    1.2200    0.5770    5.1640 1866.5410 
 905.2000  311.0000  493.0600  336.8090  905.2000  101.2210  462.7560   57.9440    1.1440    1.1930    0.5690    5.2860 1837.8010 
 905.3000  311.0000  493.5060  337.0040  905.3000   94.5060  467.4030   58.1110    1.1290    1.1790    0.5600    5.3040 1809.0640 
 905.4000  311.0000  490.0250  336.9930  905.4000   82.9320  472.0250   57.5330    1.1140    1.1660    0.5510    5.1170 1786.5170 
 905.5000  311.0000  484.5480  336.9800  905.5000   69.2760  477.5340   56.9450    1.1000    1.1540    0.5470    4.9020 1790.9301 
 905.6000  311.0000  476.7790  336.9670  905.6000   55.6830  473.0290   56.8730    1.0880    1.1460    0.5480    4.6880 1803.1071 
 905.7000  311.0000  469.9050  336.9550  905.7000   45.7320  465.4800   58.3880    1.0900    1.1340    0.5510    4.5040 1834.0811 
 905.8000  311.0000  454.0530  336.9420  905.8000   44.5580  456.5610   59.8880    1.0910    1.1360    0.5550    4.4230 1884.6281 
 905.9000  311.0000  425.2280  336.9290  905.9000   58.0120  448.9900   61.3670    1.0930    1.1400    0.5560    4.5300 1936.8440 
 906.0000  311.0000  414.0440  336.9170  906.0000   71.0000  444.1840   61.9950    1.0960    1.1440    0.5560    4.6810 1967.2440 
 906.1000  311.0000  420.2150  336.9040  906.1000   89.3560  443.1140   59.3740    1.1000    1.1480    0.5500    4.8330 1983.2830 
