~VERSION INFORMATION
 VERS.                 2.0:   CWLS LOG ASCII STANDARD - VERSION 2.0
 WRAP.                  NO:   SINGLE LINE PER DEPTH STEP
 CREA.                 21/06/2013 8:55:46 AM
#CREATED USING IP VERSION 4.1.2012.198 BY NEIL WATSON ON 21/06/2013 8:55:46 AM
~WELL INFORMATION
#MNEM.UNIT       DATA                          DESCRIPTION MNEMONIC
#---------      ---------------------------   --------------------------
 STRT    .M         900.0000                  : START DEPTH
 STOP    .M         3455.0000                 : STOP DEPTH
 STEP    .M         0.1000                    : STEP VALUE
 NULL    .      -999.0000                     : NULL VALUE
 SRVC    .      SCH                           : Service Company/Logging company
 DATE    .      21/06/2013                    : LAS file Creation Date
 WELL    .      SHELL PCI ET AL PANUKE B-90   : Well Name
 COMP    .      SHELL CANADA LIMITED          : Company
 FLD     .      SCOTIAN SHELF                 : Field
 STATE   .      ONTARIO                       : State
 COUNT   .      CANADA                        : Country
 LOC     .      43� 49' 11 _ 9" N|60� 42' 34 _: Location
 LATI    .      0                             : Latitude/Northing
 LONG    .      0                             : Longitude/Easting
 PDAT    .      RT                            : Permanent Datum
 EPDAT   .      0.0000                        : Elevation of Permanent Datum
 KB      .      23.3000                       : KB Elevation
 DF      .      22.7000                       : DF Elevation
 GL      .      47.0000                       : GL Elevation
 RWS     .      -999                          : Def_Rw
 WST     .      -999                          : Def_Rwt
 ERT     .      0.0000                        : RT Elevation
 CNTY    .      NOVA SCOTIA                   : County
 SRVC    .      SCH                           : Contractor
~CURVE INFORMATION
#MNEM                  UNIT       API CODE   Curve Type        Comments
#----------      --------------- ----------  --------------- -----------
 DEPTH          .M                         : Depth           
 BS             .mm                        :                 
 CALI           .MM                        : Caliper         Caliper
 CALS           .MM                        : Caliper         Caliper
 DepOffCPORtoRH .M                         : Depth           
 DRHO           .KG/M3                     : Drho            Delta Rho
 DT             .US/M                      : Sonic           Delta-T
 GR             .GAPI                      : GammaRay        Gamma Ray
 ILD            .OHMM                      : DeepRes         Deep Induction Standard Processed Resistivity
 ILM            .OHMM                      : MedRes          Medium Induction Standard Processed Resistivity
 NPHISS         .V/V                       : Neutron         NPHISS
 PE             .B/E                       : PEF             
 RHOB           .KG/M3                     : Density         Bulk Density
~A  DEPTH     BS       CALI      CALS   DepOffCP~    DRHO       DT        GR       ILD       ILM      NPHISS      PE       RHOB   
# ...
2933.6000  311.0000  313.9910  314.6280 2933.6001   -0.4110  265.8130   98.5320    4.9370    4.7800    0.2620    4.2500 2579.4551 
2933.7000  311.0000  314.2390  314.6010 2933.7000   -2.3730  265.6280  100.3130    4.9160    4.7660    0.2590    4.1580 2582.7290 
2933.8000  311.0000  314.4860  314.5740 2933.8000   -1.2550  265.0710  101.7760    4.8950    4.7530    0.2560    4.0760 2586.0259 
2933.9000  311.0000  314.7340  314.5470 2933.8999   -0.1640  264.5180  102.0960    4.8740    4.7400    0.2560    4.0370 2589.2791 
2934.0000  311.0000  314.9800  314.5200 2934.0000    0.9300  263.9660  101.0990    4.8530    4.7260    0.2560    3.9930 2590.3401 
2934.1000  311.0000  315.2290  314.4930 2934.1001    2.2880  261.7060  100.0900    4.8330    4.7550    0.2560    3.8830 2588.5320 
2934.2000  311.0000  315.0860  314.4660 2934.2000    4.0800  258.8590   98.0700    4.8120    4.7830    0.2540    3.7400 2586.6770 
2934.3000  311.0000  314.3980  314.4390 2934.3000    8.3200  255.7660   96.0520    4.7920    4.8120    0.2470    3.5980 2584.8279 
2934.4000  311.0000  313.7010  314.4120 2934.3999   13.5590  252.6670   94.0330    4.7700    4.8410    0.2400    3.4560 2582.9719 
2934.5000  311.0000  313.0070  314.3850 2934.5000   16.9630  251.4070   92.3640    4.7920    4.8690    0.2340    3.3160 2580.2690 
2934.6000  311.0000  312.3100  314.3580 2934.6001   18.0070  250.4160   91.2620    4.8170    4.8980    0.2280    3.3620 2577.0039 
2934.7000  311.0000  311.6180  314.3310 2934.7000   17.6440  249.8980   91.2830    4.8420    4.9280    0.2250    3.4690 2576.5530 
2934.8000  311.0000  311.7880  314.3040 2934.8000   15.7450  249.9480   91.1900    4.8670    4.9570    0.2250    3.6150 2577.5569 
2934.9000  311.0000  312.4250  314.2910 2934.8999   13.8270  249.9990   89.5260    4.8920    4.9870    0.2260    3.6160 2575.5120 
2935.0000  311.0000  312.7060  314.3070 2935.0000   11.8670  250.0500   85.4660    4.9170    5.0170    0.2260    3.5420 2565.5459 
2935.1000  311.0000  312.8230  314.3240 2935.1001   12.0470  250.7890   78.9230    4.9420    5.0440    0.2220    3.3780 2542.6121 
2935.2000  311.0000  312.9410  314.3400 2935.2000   12.7700  252.2200   72.3530    4.9710    5.0710    0.2190    3.2140 2518.5549 
2935.3000  311.0000  313.0590  314.3560 2935.3000   20.1210  253.6510   67.8080    4.9690    5.0990    0.2170    3.1200 2505.3330 
2935.4000  311.0000  313.1760  314.3720 2935.3999   27.5020  255.0670   66.4040    4.9660    5.1260    0.2160    3.1410 2501.8479 
2935.5000  311.0000  313.2950  314.3890 2935.5000   34.9090  254.4020   70.2280    4.9640    5.1540    0.2240    3.2240 2515.4270 
2935.6000  311.0000  313.2830  314.4050 2935.6001   38.7570  252.8540   73.4580    4.9610    5.1810    0.2320    3.2940 2539.5400 
2935.7000  311.0000  312.9910  314.4210 2935.7000   36.8530  250.3910   76.7470    4.9580    5.1810    0.2400    3.3320 2563.7310 
2935.8000  311.0000  312.6970  314.4380 2935.8000   30.1210  247.9280   78.0200    4.9560    5.1810    0.2460    3.2870 2570.8411 
2935.9000  311.0000  312.7570  314.4540 2935.8999   23.4030  245.4650   78.3940    4.9530    5.1810    0.2490    3.2310 2571.3911 
2936.0000  311.0000  312.9380  314.4700 2936.0000   16.6620  243.0020   78.6390    4.9500    5.1810    0.2490    3.1750 2564.9121 
2936.1000  311.0000  313.1170  314.4870 2936.1001   12.8900  240.9720   77.8470    4.9370    5.1810    0.2450    3.1190 2555.2380 
2936.2000  311.0000  313.2960  314.5030 2936.2000   11.6040  239.4520   76.7140    4.8830    5.1720    0.2400    3.0620 2545.0281 
2936.3000  311.0000  313.4750  314.5190 2936.3000   11.5840  240.7680   73.2980    4.8300    5.1120    0.2300    3.0060 2534.8650 
2936.4000  311.0000  313.6540  314.5350 2936.3999   13.1010  244.2770   69.7350    4.7770    5.0520    0.2220    2.9890 2532.8740 
2936.5000  311.0000  313.8420  314.5520 2936.5000   15.4140  247.8070   68.4780    4.7250    4.9930    0.2260    3.0070 2536.5630 
2936.6000  311.0000  313.6370  314.5680 2936.6001   17.7000  249.2700   69.3580    4.6740    4.9340    0.2320    3.1150 2548.7141 
2936.7000  311.0000  313.3260  314.5840 2936.7000   17.2590  249.1470   74.9000    4.6230    4.8760    0.2380    3.2220 2560.7310 
2936.8000  311.0000  313.0170  314.6010 2936.8000   14.4480  248.6250   80.5020    4.5820    4.8190    0.2440    3.3160 2572.8569 
2936.9000  311.0000  312.7090  314.6170 2936.8999   10.6200  248.4780   87.4290    4.5520    4.7630    0.2500    3.3010 2574.3550 
2937.0000  311.0000  312.3880  314.6330 2937.0000    6.7850  248.3320   86.4720    4.5210    4.7070    0.2500    3.1550 2564.5320 
2937.1000  311.0000  312.5230  314.6500 2937.1001    2.8350  247.2460   83.4940    4.4910    4.6620    0.2480    2.9980 2547.2410 
2937.2000  311.0000  312.6820  314.6660 2937.2000    2.8050  245.6010   76.0670    4.4660    4.6620    0.2400    2.8410 2524.0171 
2937.3000  311.0000  312.8420  314.6820 2937.3000    3.7220  243.9550   68.6290    4.4500    4.6620    0.2260    2.7040 2501.2539 
2937.4000  311.0000  313.0030  314.6980 2937.3999    4.6080  242.3100   61.5160    4.4340    4.6620    0.2110    2.6220 2486.0979 
2937.5000  311.0000  313.0650  314.7150 2937.5000    4.9020  241.8290   56.4200    4.4180    4.6620    0.1850    2.7320 2482.5591 
2937.6000  311.0000  312.7450  314.7310 2937.6001    4.4830  243.2550   58.5860    4.4020    4.6620    0.1830    2.9260 2488.7310 
2937.7000  311.0000  312.4360  314.7470 2937.7000    4.0590  245.0800   62.1610    4.3920    4.6620    0.1810    3.1190 2501.5740 
2937.8000  311.0000  312.1270  314.7640 2937.8000    3.6620  247.8440   68.7630    4.4300    4.7000    0.1980    3.3130 2516.9790 
2937.9000  311.0000  311.8170  314.7800 2937.8999    5.7460  251.7930   75.4000    4.4570    4.7400    0.2140    3.4650 2540.2620 
2938.0000  311.0000  311.6260  314.7760 2938.0000    7.9390  255.1590   81.6500    4.4850    4.7810    0.2270    3.5460 2563.6580 
2938.1000  311.0000  311.6250  314.7610 2938.1001    9.9020  256.4760   85.8900    4.5130    4.8220    0.2350    3.5690 2580.8040 
2938.2000  311.0000  311.6250  314.7470 2938.2000   11.0630  254.1290   87.4360    4.5410    4.8630    0.2360    3.5130 2587.5820 
2938.3000  311.0000  311.6250  314.7330 2938.3000   11.2930  251.1630   86.4750    4.5690    4.9050    0.2290    3.3980 2582.3191 
2938.4000  311.0000  311.6350  314.7180 2938.3999   11.4730  248.1890   83.4830    4.5970    4.9470    0.2220    3.2820 2571.5950 
2938.5000  311.0000  311.7170  314.7040 2938.5000   16.9900  247.4230   80.4790    4.6190    4.9940    0.2180    3.1660 2563.5200 
2938.6000  311.0000  311.7970  314.6900 2938.6001   27.2200  247.1330   77.4800    4.5640    4.9830    0.2190    3.0520 2561.1370 
2938.7000  311.0000  311.8770  314.6750 2938.7000   39.9700  246.8370   74.4790    4.5180    4.9710    0.2250    3.0130 2564.5400 
2938.8000  311.0000  311.9580  314.6610 2938.8000   52.7520  246.1240   72.0200    4.4730    4.9200    0.2320    3.0700 2570.0271 
2938.9000  311.0000  312.0370  314.6470 2938.8999   59.9990  244.9690   70.5690    4.4280    4.8660    0.2390    3.2430 2572.7251 
2939.0000  311.0000  312.1190  314.6320 2939.0000   59.2750  243.8840   69.1210    4.3840    4.8130    0.2410    3.5930 2575.4309 
2939.1000  311.0000  311.6370  314.6180 2939.1001   56.6070  243.2420   67.6670    4.3400    4.7600    0.2440    3.9390 2582.8701 
2939.2000  311.0000  311.1090  314.6040 2939.2000   53.9680  242.7870   66.3090    4.2840    4.7080    0.2500    4.2120 2592.2749 
2939.3000  311.0000  310.5790  314.5890 2939.3000   52.0930  243.9620   65.9790    4.2260    4.6560    0.2570    4.1240 2599.9380 
2939.4000  311.0000  310.1480  314.5750 2939.3999   51.2160  245.1370   65.1350    4.1690    4.6270    0.2600    3.9350 2604.3320 
2939.5000  311.0000  310.4080  314.5610 2939.5000   50.3620  246.3130   63.6380    4.1130    4.6090    0.2590    3.6770 2585.6379 
2939.6000  311.0000  310.6550  314.5460 2939.6001   49.5150  247.4880   58.5720    4.0680    4.5900    0.2500    3.4660 2552.9309 
2939.7000  311.0000  310.8350  314.5490 2939.7000   47.8130  248.0650   53.7220    4.0360    4.5710    0.2380    3.3170 2518.2959 
