~VERSION INFORMATION
 VERS.                 2.0:   CWLS LOG ASCII STANDARD - VERSION 2.0
 WRAP.                  NO:   SINGLE LINE PER DEPTH STEP
 CREA.                 21/06/2013 8:55:46 AM
#CREATED USING IP VERSION 4.1.2012.198 BY NEIL WATSON ON 21/06/2013 8:55:46 AM
~WELL INFORMATION
#MNEM.UNIT       DATA                          DESCRIPTION MNEMONIC
#---------      ---------------------------   --------------------------
 STRT    .M         900.0000                  : START DEPTH
 STOP    .M         3455.0000                 : STOP DEPTH
 STEP    .M         0.1000                    : STEP VALUE
 NULL    .      -999.0000                     : NULL VALUE
 SRVC    .      SCH                           : Service Company/Logging company
 DATE    .      21/06/2013                    : LAS file Creation Date
 WELL    .      SHELL PCI ET AL PANUKE B-90   : Well Name
 COMP    .      SHELL CANADA LIMITED          : Company
 FLD     .      SCOTIAN SHELF                 : Field
 STATE   .      ONTARIO                       : State
 COUNT   .      CANADA                        : Country
 LOC     .      43� 49' 11 _ 9" N|60� 42' 34 _: Location
 LATI    .      0                             : Latitude/Northing
 LONG    .      0                             : Longitude/Easting
 PDAT    .      RT                            : Permanent Datum
 EPDAT   .      0.0000                        : Elevation of Permanent Datum
 KB      .      23.3000                       : KB Elevation
 DF      .      22.7000                       : DF Elevation
 GL      .      47.0000                       : GL Elevation
 RWS     .      -999                          : Def_Rw
 WST     .      -999                          : Def_Rwt
 ERT     .      0.0000                        : RT Elevation
 CNTY    .      NOVA SCOTIA                   : County
 SRVC    .      SCH                           : Contractor
~CURVE INFORMATION
#MNEM                  UNIT       API CODE   Curve Type        Comments
#----------      --------------- ----------  --------------- -----------
 DEPTH          .M                         : Depth           
 BS             .mm                        :                 
 CALI           .MM                        : Caliper         Caliper
 CALS           .MM                        : Caliper         Caliper
 DepOffCPORtoRH .M                         : Depth           
 DRHO           .KG/M3                     : Drho            Delta Rho
 DT             .US/M                      : Sonic           Delta-T
 GR             .GAPI                      : GammaRay        Gamma Ray
 ILD            .OHMM                      : DeepRes         Deep Induction Standard Processed Resistivity
 ILM            .OHMM                      : MedRes          Medium Induction Standard Processed Resistivity
 NPHISS         .V/V                       : Neutron         NPHISS
 PE             .B/E                       : PEF             
 RHOB           .KG/M3                     : Density         Bulk Density
~A  DEPTH     BS       CALI      CALS   DepOffCP~    DRHO       DT        GR       ILD       ILM      NPHISS      PE       RHOB   
# ...
1067.4000  311.0000  338.0620  325.7990 1067.4000   12.8980  423.2390   74.1030    1.3110    1.3550    0.4770    3.3160 2325.0161 
1067.5000  311.0000  339.1670  324.8810 1067.5000   18.1740  436.3950   74.7490    1.2990    1.3410    0.4850    3.2540 2322.9399 
1067.6000  311.0000  340.2290  324.8540 1067.6000   20.4750  445.5820   75.4030    1.2870    1.3270    0.4920    3.2190 2320.7520 
1067.7000  311.0000  340.8080  325.2870 1067.7000   17.8940  439.2490   75.9480    1.2750    1.3120    0.4980    3.2700 2314.4031 
1067.8000  311.0000  341.4110  325.7190 1067.8000   11.1950  433.4760   76.4560    1.2630    1.2980    0.5020    3.3950 2297.4929 
1067.9000  311.0000  342.0130  326.1520 1067.9000    4.4440  430.0180   75.7830    1.2510    1.2930    0.4940    3.5790 2265.4590 
1068.0000  311.0000  342.6150  326.5840 1068.0000    0.1670  440.9620   74.0450    1.2390    1.2900    0.4850    3.7650 2212.7800 
1068.1000  311.0000  343.2230  327.0180 1068.1000   -0.7280  449.6180   72.2900    1.2270    1.2870    0.4760    3.9300 2156.4819 
1068.2000  311.0000  343.7590  326.6950 1068.2000    0.9240  456.9940   70.5590    1.2230    1.2830    0.4610    3.9910 2089.9250 
1068.3000  311.0000  346.6810  326.3040 1068.3000    2.5590  462.4100   69.7200    1.2200    1.2800    0.4660    3.9240 2094.0969 
1068.4000  311.0000  349.9770  325.9110 1068.4000    2.9430  483.9770   72.7350    1.2170    1.2770    0.4750    3.8160 2109.5259 
1068.5000  311.0000  349.4790  325.0480 1068.5000    2.4410  499.5010   74.8670    1.2140    1.2740    0.4850    3.7080 2147.8669 
1068.6000  311.0000  347.9320  323.9280 1068.6000    2.9220  501.6970   76.2910    1.2090    1.2710    0.4940    3.6010 2195.3840 
1068.7000  311.0000  346.4050  322.8120 1068.7000    5.1560  500.0690   77.7690    1.2190    1.2680    0.5000    3.5350 2248.7520 
1068.8000  311.0000  344.8970  321.6770 1068.8000   10.8140  497.1080   77.0260    1.2340    1.2660    0.4950    3.4870 2274.9500 
1068.9000  311.0000  344.7890  321.6880 1068.9000   16.4340  492.1950   75.9990    1.2500    1.2940    0.4880    3.4380 2287.9641 
1069.0000  311.0000  346.0700  321.8810 1069.0000   18.2170  478.4640   74.9740    1.2690    1.3150    0.4810    3.3890 2289.6870 
1069.1000  311.0000  347.5350  322.0700 1069.1000   18.2580  464.7360   73.9550    1.2890    1.3360    0.4790    3.3400 2287.2781 
1069.2000  311.0000  348.9960  322.2600 1069.2000   15.7840  451.0080   74.0070    1.3090    1.3570    0.4760    3.3210 2288.6599 
1069.3000  311.0000  350.4600  322.4500 1069.3000   12.9360  440.3660   74.6050    1.3540    1.3790    0.4710    3.3430 2294.0549 
1069.4000  311.0000  351.7380  322.6400 1069.4000   12.7290  433.7990   75.1830    1.4230    1.4000    0.4530    3.3890 2304.6870 
1069.5000  311.0000  352.2820  322.8320 1069.5000   13.5940  443.7020   74.5780    1.4960    1.4580    0.4460    3.4640 2315.1270 
1069.6000  311.0000  352.8300  323.0420 1069.6000   14.4560  450.8170   72.5070    1.5710    1.5140    0.4280    3.5400 2325.6189 
1069.7000  311.0000  353.3780  324.3990 1069.7000   15.0630  455.9660   70.4170    1.6510    1.5950    0.4220    3.6150 2333.5249 
1069.8000  311.0000  353.9270  325.8240 1069.8000   13.3940  444.0450   68.3400    1.7350    1.6770    0.4150    3.7380 2342.8259 
1069.9000  311.0000  354.4780  327.2510 1069.9000   11.7530  430.7870   66.9900    1.8230    1.7630    0.4020    3.8730 2356.4580 
1070.0000  311.0000  354.4290  328.6760 1070.0000   10.7370  417.5300   66.3640    1.8910    1.8270    0.3820    4.0080 2369.6299 
1070.1000  311.0000  354.1120  329.7190 1070.1000   10.7250  404.2720   65.7500    1.9750    1.8710    0.3620    4.0940 2387.9060 
1070.2000  311.0000  353.7940  329.0410 1070.2000   12.9230  391.0150   65.1130    1.9700    1.9390    0.3380    4.0780 2410.6541 
1070.3000  311.0000  353.4810  328.3720 1070.3000   19.3740  377.4840   65.7290    1.9630    1.9110    0.3500    4.0610 2406.6179 
1070.4000  311.0000  354.2720  328.4290 1070.4000   31.5510  378.7720   66.8800    1.9550    1.8590    0.4480    4.0620 2399.2500 
1070.5000  311.0000  355.6750  328.6280 1070.5000   40.6680  386.1170   69.7020    1.9480    1.8090    0.4290    4.1070 2387.1851 
1070.6000  311.0000  357.0640  328.5760 1070.6000   47.1660  406.9040   72.5370    1.9400    1.7600    0.4680    4.1510 2374.0100 
1070.7000  311.0000  357.7850  327.7450 1070.7000   48.8650  441.8860   75.1040    1.9100    1.7120    0.4970    4.1960 2354.6970 
1070.8000  311.0000  358.0660  326.9230 1070.8000   39.6070  466.2250   77.1290    1.8790    1.6800    0.5190    4.2230 2321.7671 
1070.9000  311.0000  358.3500  326.0990 1070.9000   32.9520  489.1160   77.5010    1.8480    1.6610    0.5390    4.2670 2257.3320 
1071.0000  311.0000  358.6350  325.2750 1071.0000   30.7810  491.2070   77.0530    1.8170    1.6420    0.5450    4.3640 2194.4170 
1071.1000  311.0000  358.9160  325.0470 1071.1000   41.0160  488.3180   74.3970    1.7870    1.6220    0.5470    4.4620 2136.0481 
1071.2000  311.0000  359.0160  325.0820 1071.2000   55.9780  473.6340   71.7520    1.7610    1.6370    0.5320    4.5840 2069.7161 
1071.3000  311.0000  358.8930  325.1150 1071.3000   67.9510  457.9190   69.1150    1.7610    1.6540    0.4880    4.5400 2078.1169 
1071.4000  311.0000  356.6510  325.1490 1071.4000   67.3800  445.3820   66.6250    1.7610    1.6710    0.4500    4.4240 2102.7390 
1071.5000  311.0000  353.1800  325.1830 1071.5000   53.5430  452.0850   67.8380    1.7610    1.6890    0.4430    4.2960 2143.9270 
1071.6000  311.0000  349.7400  325.2160 1071.6000   37.7970  457.6610   69.5780    1.7720    1.7020    0.4340    4.1680 2184.8989 
1071.7000  311.0000  348.2110  325.2500 1071.7000   22.1270  463.1550   72.1910    1.7890    1.7090    0.4280    4.0400 2225.6370 
1071.8000  311.0000  346.8690  325.2710 1071.8000   10.2580  465.6250   73.7660    1.8060    1.7160    0.4340    3.9120 2242.3181 
1071.9000  311.0000  347.6310  325.5190 1071.9000   11.0940  468.0590   75.2050    1.8230    1.7210    0.4420    3.8270 2238.5750 
1072.0000  311.0000  348.9340  325.8260 1072.0000   16.3170  470.5440   74.9160    1.8410    1.7260    0.4480    3.7630 2225.6289 
1072.1000  311.0000  351.4100  326.1320 1072.1000   26.8640  469.2570   74.3800    1.8520    1.7310    0.4390    3.8000 2214.8311 
1072.2000  311.0000  354.5090  326.4380 1072.2000   37.1460  466.2560   73.8530    1.8350    1.7370    0.4270    3.9080 2209.1550 
1072.3000  311.0000  357.4170  326.7430 1072.3000   47.4290  461.9570   73.3080    1.8110    1.7150    0.4100    4.1800 2208.9089 
1072.4000  311.0000  358.3110  327.0530 1072.4000   57.7240  451.1310   74.4890    1.7690    1.6880    0.3970    4.4500 2208.4609 
1072.5000  311.0000  356.7830  327.1300 1072.5000   62.9590  441.4920   75.7930    1.7270    1.6620    0.3930    4.7210 2196.5901 
1072.6000  311.0000  351.7730  326.5910 1072.6000   59.8250  435.9660   77.0970    1.6870    1.6370    0.4000    4.9910 2168.9080 
1072.7000  311.0000  346.7420  326.0550 1072.7000   48.9290  444.5400   78.4150    1.6720    1.6270    0.4310    5.1360 2084.0010 
1072.8000  311.0000  345.2020  325.5190 1072.8000   32.0630  459.7400   79.0340    1.6610    1.6180    0.4500    5.2140 2000.5570 
1072.9000  311.0000  345.4070  324.9840 1072.9000   15.1460  478.1590   76.9570    1.6490    1.6090    0.4640    5.2050 1905.8979 
1073.0000  311.0000  349.8240  324.4480 1073.0000   13.5330  499.9370   74.9540    1.6380    1.6000    0.5130    5.1000 1744.7600 
1073.1000  311.0000  357.6440  323.9080 1073.1000   12.6810  499.6530   72.9450    1.6270    1.5910    0.5620    4.9180 1761.7760 
1073.2000  311.0000  367.7920  323.7750 1073.2000   28.8160  501.1730   70.9400    1.6160    1.5820    0.5750    4.6090 1799.6510 
1073.3000  311.0000  366.3850  323.7760 1073.3000   45.0750  500.5970   70.6480    1.6050    1.5740    0.5600    4.3150 1897.5890 
1073.4000  311.0000  362.4850  323.7810 1073.4000   61.4190  498.0850   71.6190    1.5940    1.5650    0.5300    4.1430 2001.7469 
1073.5000  311.0000  355.3510  323.8110 1073.5000   66.2500  488.5550   73.5320    1.5880    1.5560    0.5000    3.9880 2089.9451 
